{
"type": "FeatureCollection",
"name": "disability_centres",
"crs": { "type": "name", "properties": { "name": "urn:ogc:def:crs:OGC:1.3:CRS84" } },
"features": [
{ "type": "Feature", "properties": { "ID": 1, "Organizati": "Adventure Place Child and Family Centre", "Office_Pho": "416-744-7650", "E_Mail": "intake@adventureplace.ca", "Website": "www.adventureplace.ca", "ADDRESS_OR": "40 Orchard View Blvd", "GC_WARD": "Eglinton-Lawrence (16)", "GC_LONGITU": -79.358084, "GC_LATITUD": 43.798982, "GC_X": 316204.125, "GC_Y": 4850789.674, "Type": "Developmental" }, "geometry": { "type": "Point", "coordinates": [ -79.358084, 43.798982 ] } },
{ "type": "Feature", "properties": { "ID": 2, "Organizati": "Addus, Orchard View Location", "Office_Pho": "416-544-8847 ext 28", "E_Mail": null, "Website": "www.addus.org", "ADDRESS_OR": "2901 Dufferin St", "GC_WARD": "Eglinton-Lawrence (15)", "GC_LONGITU": -79.400067, "GC_LATITUD": 43.708278, "GC_X": 312838.109, "GC_Y": 4840707.192, "Type": "Developmental" }, "geometry": { "type": "Point", "coordinates": [ -79.400067, 43.708278 ] } },
{ "type": "Feature", "properties": { "ID": 3, "Organizati": "Cota, Main Office", "Office_Pho": "Reception 416-785-9230", "E_Mail": "info@cotainspires.ca", "Website": "www.cotainspires.ca", "ADDRESS_OR": "160 Springhurst Ave", "GC_WARD": "Parkdale-High Park (14)", "GC_LONGITU": -79.453112, "GC_LATITUD": 43.70852, "GC_X": 308563.156, "GC_Y": 4840730.11, "Type": "Developmental" }, "geometry": { "type": "Point", "coordinates": [ -79.453112, 43.70852 ] } },
{ "type": "Feature", "properties": { "ID": 5, "Organizati": "CORE", "Office_Pho": "416-340-7929", "E_Mail": "core.centre@bellnet.ca", "Website": "www.core-toronto.ca", "ADDRESS_OR": "581 Trethewey Dr", "GC_WARD": "York South-Weston (12)", "GC_LONGITU": -79.437078, "GC_LATITUD": 43.636829, "GC_X": 309861.33, "GC_Y": 4832766.519, "Type": "Developmental" }, "geometry": { "type": "Point", "coordinates": [ -79.437078, 43.636829 ] } },
{ "type": "Feature", "properties": { "ID": 6, "Organizati": "Corbrook, West Campus", "Office_Pho": "416-245-5565", "E_Mail": "info@corbrook.com", "Website": "www.corbrook.com", "ADDRESS_OR": "401 Champagne Dr", "GC_WARD": "York West (8)", "GC_LONGITU": -79.492235, "GC_LATITUD": 43.696444, "GC_X": 305410.372, "GC_Y": 4839387.6, "Type": "Developmental" }, "geometry": { "type": "Point", "coordinates": [ -79.492235, 43.696444 ] } },
{ "type": "Feature", "properties": { "ID": 7, "Organizati": "Meta Centre", "Office_Pho": "416-736-0199", "E_Mail": null, "Website": "www.metacentre.ca", "ADDRESS_OR": "65 Hartsdale Dr", "GC_WARD": "Etobicoke Centre (4)", "GC_LONGITU": -79.474206, "GC_LATITUD": 43.764228, "GC_X": 306861.446, "GC_Y": 4846918.343, "Type": "Developmental" }, "geometry": { "type": "Point", "coordinates": [ -79.474206, 43.764228 ] } },
{ "type": "Feature", "properties": { "ID": 8, "Organizati": "Etobicoke Children's Centre", "Office_Pho": "416-240-1111", "E_Mail": "ecc@etobicokechildren.com", "Website": "www.etobicokechildren.com", "ADDRESS_OR": "112 Merton St", "GC_WARD": "St. Paul's (22)", "GC_LONGITU": -79.545231, "GC_LATITUD": 43.683237, "GC_X": 301137.678, "GC_Y": 4837921.459, "Type": "Developmental" }, "geometry": { "type": "Point", "coordinates": [ -79.545231, 43.683237 ] } },
{ "type": "Feature", "properties": { "ID": 9, "Organizati": "Geneva Centre for Autism", "Office_Pho": "416-322-7877", "E_Mail": "info@autism.net", "Website": "www.autism.net", "ADDRESS_OR": "1124 Finch Ave W", "GC_WARD": "York West (8)", "GC_LONGITU": -79.392809, "GC_LATITUD": 43.69707, "GC_X": 313424.367, "GC_Y": 4839463.582, "Type": "Developmental" }, "geometry": { "type": "Point", "coordinates": [ -79.392809, 43.69707 ] } },
{ "type": "Feature", "properties": { "ID": 10, "Organizati": "Griffin Centre", "Office_Pho": "416-222-1153", "E_Mail": "contact@griffincentre.org", "Website": "www.griffincentre.org", "ADDRESS_OR": "219 Dufferin St", "GC_WARD": "Parkdale-High Park (14)", "GC_LONGITU": -79.476262, "GC_LATITUD": 43.7692, "GC_X": 306695.486, "GC_Y": 4847471.584, "Type": "Developmental" }, "geometry": { "type": "Point", "coordinates": [ -79.476262, 43.7692 ] } },
{ "type": "Feature", "properties": { "ID": 11, "Organizati": "Kerry's Place Autism Services, Toronto Region", "Office_Pho": "416-537-2000", "E_Mail": "joe.persaud@kerrysplace.org", "Website": "www.kerrysplace.org", "ADDRESS_OR": "20 Spadina Rd", "GC_WARD": "Trinity-Spadina (20)", "GC_LONGITU": -79.426218, "GC_LATITUD": 43.636746, "GC_X": 310737.634, "GC_Y": 4832757.896, "Type": "Developmental" }, "geometry": { "type": "Point", "coordinates": [ -79.426218, 43.636746 ] } },
{ "type": "Feature", "properties": { "ID": 12, "Organizati": "Community Living Toronto, Central Region", "Office_Pho": "416-968-0650", "E_Mail": "abradley@cltoronto.ca", "Website": "www.communitylivingtoronto.ca", "ADDRESS_OR": "1630 Lawrence Ave W", "GC_WARD": "York South-Weston (12)", "GC_LONGITU": -79.405043, "GC_LATITUD": 43.668555, "GC_X": 312442.074, "GC_Y": 4836293.467, "Type": "Developmental" }, "geometry": { "type": "Point", "coordinates": [ -79.405043, 43.668555 ] } },
{ "type": "Feature", "properties": { "ID": 13, "Organizati": "Ontario Federation for Cerebral Palsy", "Office_Pho": "416-244-9686", "E_Mail": "info@ofcp.ca", "Website": "www.ofcp.ca", "ADDRESS_OR": "1179 King St W", "GC_WARD": "Parkdale-High Park (14)", "GC_LONGITU": -79.491425, "GC_LATITUD": 43.706167, "GC_X": 305475.573, "GC_Y": 4840467.787, "Type": "Developmental" }, "geometry": { "type": "Point", "coordinates": [ -79.491425, 43.706167 ] } },
{ "type": "Feature", "properties": { "ID": 14, "Organizati": "Autism Ontario, Provincial Office", "Office_Pho": "416-246-9592", "E_Mail": "mail@autismontario.com", "Website": "www.autismontario.com", "ADDRESS_OR": "325 Milner Ave", "GC_WARD": "Scarborough-Rouge River (42)", "GC_LONGITU": -79.425194, "GC_LATITUD": 43.639119, "GC_X": 310820.04, "GC_Y": 4833021.665, "Type": "Developmental" }, "geometry": { "type": "Point", "coordinates": [ -79.425194, 43.639119 ] } },
{ "type": "Feature", "properties": { "ID": 15, "Organizati": "Aisling Discoveries Child and Family Centre", "Office_Pho": "416-321-5464", "E_Mail": "email@aislingdiscoveries.on.ca", "Website": "www.aislingdiscoveries.on.ca", "ADDRESS_OR": "2 Surrey Pl", "GC_WARD": "Toronto Centre-Rosedale (27)", "GC_LONGITU": -79.233348, "GC_LATITUD": 43.789958, "GC_X": 326244.849, "GC_Y": 4849810.778, "Type": "Developmental" }, "geometry": { "type": "Point", "coordinates": [ -79.233348, 43.789958 ] } },
{ "type": "Feature", "properties": { "ID": 16, "Organizati": "Surrey Place Centre", "Office_Pho": "416-925-5141", "E_Mail": "info@surreyplace.on.ca", "Website": "www.surreyplace.on.ca", "ADDRESS_OR": "825 Coxwell Ave", "GC_WARD": "Beaches-East York (31)", "GC_LONGITU": -79.388744, "GC_LATITUD": 43.661151, "GC_X": 313757.599, "GC_Y": 4835472.59, "Type": "Developmental" }, "geometry": { "type": "Point", "coordinates": [ -79.388744, 43.661151 ] } },
{ "type": "Feature", "properties": { "ID": 17, "Organizati": "Toronto East General Hospital", "Office_Pho": "Switchboard 416-461-8272 ; Patient Directory Line 416-469-6487", "E_Mail": "community@tegh.on.ca", "Website": "www.tegh.on.ca", "ADDRESS_OR": "3701 Danforth Ave", "GC_WARD": "Scarborough Southwest (36)", "GC_LONGITU": -79.324954, "GC_LATITUD": 43.689832, "GC_X": 318895.789, "GC_Y": 4838667.766, "Type": "Developmental" }, "geometry": { "type": "Point", "coordinates": [ -79.324954, 43.689832 ] } },
{ "type": "Feature", "properties": { "ID": 18, "Organizati": "Variety Village", "Office_Pho": "416-699-7167", "E_Mail": "info@varietyvillage.on.ca", "Website": "www.varietyvillage.ca", "ADDRESS_OR": "4301 Weston Rd", "GC_WARD": "York West (7)", "GC_LONGITU": -79.257226, "GC_LATITUD": 43.698594, "GC_X": 324352.8, "GC_Y": 4839654.886, "Type": "Developmental" }, "geometry": { "type": "Point", "coordinates": [ -79.257226, 43.698594 ] } },
{ "type": "Feature", "properties": { "ID": 19, "Organizati": "VITA Community Living Services", "Office_Pho": "416-749-6234", "E_Mail": "klenahan@vitacls.org", "Website": "www.vitacls.org", "ADDRESS_OR": "815 Danforth Ave", "GC_WARD": "Toronto-Danforth (30)", "GC_LONGITU": -79.545908, "GC_LATITUD": 43.769567, "GC_X": 301088.363, "GC_Y": 4847513.16, "Type": "Developmental" }, "geometry": { "type": "Point", "coordinates": [ -79.545908, 43.769567 ] } },
{ "type": "Feature", "properties": { "ID": 20, "Organizati": "WoodGreen Community Services, Danforth Avenue Main Office, Housing and Community Supports", "Office_Pho": "416-645-6000", "E_Mail": null, "Website": "www.woodgreen.org", "ADDRESS_OR": "40 Samor Rd", "GC_WARD": "Eglinton-Lawrence (15)", "GC_LONGITU": -79.340974, "GC_LATITUD": 43.679448, "GC_X": 317606.516, "GC_Y": 4837511.481, "Type": "Developmental" }, "geometry": { "type": "Point", "coordinates": [ -79.340974, 43.679448 ] } },
{ "type": "Feature", "properties": { "ID": 21, "Organizati": "Aptus Treatment Centre, Adult Day Program", "Office_Pho": "416-633-5775", "E_Mail": "info@aptustc.com", "Website": "www.aptustc.com", "ADDRESS_OR": "931 Progress Ave", "GC_WARD": "Scarborough Centre (38)", "GC_LONGITU": -79.458648, "GC_LATITUD": 43.718377, "GC_X": 308116.521, "GC_Y": 4841824.935, "Type": "Developmental" }, "geometry": { "type": "Point", "coordinates": [ -79.458648, 43.718377 ] } },
{ "type": "Feature", "properties": { "ID": 22, "Organizati": "Corbrook, East Campus", "Office_Pho": "416-431-9000", "E_Mail": "info@corbrook.com", "Website": "www.corbrook.com", "ADDRESS_OR": "295 The West Mall", "GC_WARD": "Etobicoke Centre (3)", "GC_LONGITU": -79.230432, "GC_LATITUD": 43.783736, "GC_X": 326481.749, "GC_Y": 4849120.33, "Type": "Developmental" }, "geometry": { "type": "Point", "coordinates": [ -79.230432, 43.783736 ] } },
{ "type": "Feature", "properties": { "ID": 23, "Organizati": "Community Living Toronto, Etobicoke\/York Region", "Office_Pho": "416-236-7621", "E_Mail": null, "Website": "www.communitylivingtoronto.ca", "ADDRESS_OR": "1122 Finch Ave W", "GC_WARD": "York West (8)", "GC_LONGITU": -79.5613, "GC_LATITUD": 43.635319, "GC_X": 299838.212, "GC_Y": 4832598.683, "Type": "Developmental" }, "geometry": { "type": "Point", "coordinates": [ -79.5613, 43.635319 ] } },
{ "type": "Feature", "properties": { "ID": 24, "Organizati": "Community Living Toronto, North York Region", "Office_Pho": "416-225-7166", "E_Mail": null, "Website": "www.communitylivingtoronto.ca", "ADDRESS_OR": "1712 Ellesmere Rd", "GC_WARD": "Scarborough Centre (38)", "GC_LONGITU": -79.475437, "GC_LATITUD": 43.7694, "GC_X": 306761.867, "GC_Y": 4847493.843, "Type": "Developmental" }, "geometry": { "type": "Point", "coordinates": [ -79.475437, 43.7694 ] } },
{ "type": "Feature", "properties": { "ID": 25, "Organizati": "Community Living Toronto, Scarborough Region", "Office_Pho": "416-438-6099", "E_Mail": null, "Website": "www.communitylivingtoronto.ca", "ADDRESS_OR": "184 Galloway Rd", "GC_WARD": "Scarborough East (43)", "GC_LONGITU": -79.248169, "GC_LATITUD": 43.77347, "GC_X": 325057.371, "GC_Y": 4847976.328, "Type": "Developmental" }, "geometry": { "type": "Point", "coordinates": [ -79.248169, 43.77347 ] } },
{ "type": "Feature", "properties": { "ID": 26, "Organizati": "East Metro Youth Services, Galloway Road Site, Developmental Services", "Office_Pho": "416-724-7444", "E_Mail": "emys@emys.on.ca", "Website": "www.emys.on.ca", "ADDRESS_OR": "61 Queen St E", "GC_WARD": "Toronto Centre-Rosedale (28)", "GC_LONGITU": -79.196127, "GC_LATITUD": 43.764278, "GC_X": 329250.833, "GC_Y": 4846968.15, "Type": "Developmental" }, "geometry": { "type": "Point", "coordinates": [ -79.196127, 43.764278 ] } },
{ "type": "Feature", "properties": { "ID": 27, "Organizati": "St Michael's Hospital, Pediatric Ambulatory Clinic", "Office_Pho": "416-867-3655", "E_Mail": null, "Website": "www.stmichaelshospital.com", "ADDRESS_OR": "40 Wynford Dr", "GC_WARD": "Don Valley West (26)", "GC_LONGITU": -79.376288, "GC_LATITUD": 43.652826, "GC_X": 314763.622, "GC_Y": 4834549.145, "Type": "Developmental" }, "geometry": { "type": "Point", "coordinates": [ -79.376288, 43.652826 ] } },
{ "type": "Feature", "properties": { "ID": 28, "Organizati": "Surex Community Services", "Office_Pho": "416-469-4109", "E_Mail": "colin.hamilton@surexcs.com", "Website": "www.surexcs.com", "ADDRESS_OR": "225 Queen St E", "GC_WARD": "Toronto Centre-Rosedale (28)", "GC_LONGITU": -79.335756, "GC_LATITUD": 43.724297, "GC_X": 318017.413, "GC_Y": 4842494.938, "Type": "Developmental" }, "geometry": { "type": "Point", "coordinates": [ -79.335756, 43.724297 ] } },
{ "type": "Feature", "properties": { "ID": 29, "Organizati": "Anishnawbe Health Toronto, Queen Street Site", "Office_Pho": "416-360-0486", "E_Mail": "info@aht.ca", "Website": "www.aht.ca", "ADDRESS_OR": "111 Anthony Rd", "GC_WARD": "York Centre (9)", "GC_LONGITU": -79.369822, "GC_LATITUD": 43.654265, "GC_X": 315284.976, "GC_Y": 4834709.769, "Type": "Developmental" }, "geometry": { "type": "Point", "coordinates": [ -79.369822, 43.654265 ] } },
{ "type": "Feature", "properties": { "ID": 30, "Organizati": "Aptus Treatment Centre, Toronto Children's Day Program", "Office_Pho": "416-633-3971", "E_Mail": "info@aptustc.com", "Website": "www.aptustc.com", "ADDRESS_OR": "38 Regent St", "GC_WARD": "Toronto Centre-Rosedale (28)", "GC_LONGITU": -79.467946, "GC_LATITUD": 43.72791, "GC_X": 307366.916, "GC_Y": 4842883.738, "Type": "Developmental" }, "geometry": { "type": "Point", "coordinates": [ -79.467946, 43.72791 ] } },
{ "type": "Feature", "properties": { "ID": 31, "Organizati": "Regent Park Community Health Centre, Parents for Better Beginnings", "Office_Pho": "416-362-0805 ext 222", "E_Mail": "pfbb.info@regentparkchc.org", "Website": "www.regentparkchc.org\/infant-child-development", "ADDRESS_OR": "63 Mack Ave", "GC_WARD": "Scarborough Southwest (35)", "GC_LONGITU": -79.364272, "GC_LATITUD": 43.658595, "GC_X": 315731.545, "GC_Y": 4835192.534, "Type": "Developmental" }, "geometry": { "type": "Point", "coordinates": [ -79.364272, 43.658595 ] } },
{ "type": "Feature", "properties": { "ID": 32, "Organizati": "Warden Woods Community Centre, Mack Avenue Office, Health and Seniors Services", "Office_Pho": "416-694-1138 ext 138", "E_Mail": null, "Website": "www.wardenwoods.com", "ADDRESS_OR": "840 Coxwell Ave", "GC_WARD": "Toronto-Danforth (29)", "GC_LONGITU": -79.269944, "GC_LATITUD": 43.700211, "GC_X": 323327.2, "GC_Y": 4839831.541, "Type": "Developmental" }, "geometry": { "type": "Point", "coordinates": [ -79.269944, 43.700211 ] } },
{ "type": "Feature", "properties": { "ID": 33, "Organizati": "Woodgreen Community Services, Adult Day Program, Community Care and Wellness for Seniors", "Office_Pho": "416-572-3575", "E_Mail": "ccwscentralintake@woodgreen.org", "Website": "www.woodgreen.org", "ADDRESS_OR": "931 Kingston Rd", "GC_WARD": "Beaches-East York (32)", "GC_LONGITU": -79.326763, "GC_LATITUD": 43.690159, "GC_X": 318749.589, "GC_Y": 4838704.784, "Type": "Developmental" }, "geometry": { "type": "Point", "coordinates": [ -79.326763, 43.690159 ] } },
{ "type": "Feature", "properties": { "ID": 34, "Organizati": "Pegasus Community Project for Adults with Special Needs", "Office_Pho": "416-691-5651 * Thrift Store 416-913-2544", "E_Mail": "info@pegasustoronto.ca", "Website": "www.pegasustoronto.ca", "ADDRESS_OR": "240 Duncan Mill Rd", "GC_WARD": "Don Valley East (34)", "GC_LONGITU": -79.288491, "GC_LATITUD": 43.680168, "GC_X": 321837.964, "GC_Y": 4837600.955, "Type": "Developmental" }, "geometry": { "type": "Point", "coordinates": [ -79.288491, 43.680168 ] } },
{ "type": "Feature", "properties": { "ID": 35, "Organizati": "Community Living Ontario", "Office_Pho": "416-447-4348", "E_Mail": "info@communitylivingontario.ca", "Website": "www.communitylivingontario.ca", "ADDRESS_OR": "40 Orchard View Blvd", "GC_WARD": "Eglinton-Lawrence (16)", "GC_LONGITU": -79.351456, "GC_LATITUD": 43.762229, "GC_X": 316744.969, "GC_Y": 4846706.53, "Type": "Developmental" }, "geometry": { "type": "Point", "coordinates": [ -79.351456, 43.762229 ] } },
{ "type": "Feature", "properties": { "ID": 36, "Organizati": "Addus, Head Office Location", "Office_Pho": "416-544-8847", "E_Mail": null, "Website": "www.addus.org", "ADDRESS_OR": "360 Windermere Ave", "GC_WARD": "Parkdale-High Park (13)", "GC_LONGITU": -79.400067, "GC_LATITUD": 43.708278, "GC_X": 312838.109, "GC_Y": 4840707.192, "Type": "Developmental" }, "geometry": { "type": "Point", "coordinates": [ -79.400067, 43.708278 ] } },
{ "type": "Feature", "properties": { "ID": 37, "Organizati": "Addus, Windermere Location", "Office_Pho": "416-604-2449", "E_Mail": null, "Website": "www.addus.org", "ADDRESS_OR": "1464 Midland Ave", "GC_WARD": "Scarborough Centre (37)", "GC_LONGITU": -79.480825, "GC_LATITUD": 43.649628, "GC_X": 306331.212, "GC_Y": 4834186.702, "Type": "Developmental" }, "geometry": { "type": "Point", "coordinates": [ -79.480825, 43.649628 ] } },
{ "type": "Feature", "properties": { "ID": 38, "Organizati": "Operation Springboard, Seeking Opportunities Accessing Resources", "Office_Pho": "416-913-1301", "E_Mail": "info@springboardservices.ca", "Website": "www.springboardservices.ca", "ADDRESS_OR": "200 Eglinton Ave W", "GC_WARD": "Eglinton-Lawrence (16)", "GC_LONGITU": -79.265636, "GC_LATITUD": 43.75242, "GC_X": 323658.032, "GC_Y": 4845632.747, "Type": "Developmental" }, "geometry": { "type": "Point", "coordinates": [ -79.265636, 43.75242 ] } },
{ "type": "Feature", "properties": { "ID": 39, "Organizati": "Addus, Eglinton Location", "Office_Pho": "416-481-9930", "E_Mail": null, "Website": "www.addus.org", "ADDRESS_OR": "2395 Bayview Ave", "GC_WARD": "Don Valley West (25)", "GC_LONGITU": -79.404623, "GC_LATITUD": 43.706106, "GC_X": 312470.973, "GC_Y": 4840466.317, "Type": "Developmental" }, "geometry": { "type": "Point", "coordinates": [ -79.404623, 43.706106 ] } },
{ "type": "Feature", "properties": { "ID": 40, "Organizati": "Bob Rumball Centre for the Deaf, Day Program", "Office_Pho": "416-449-9651 ext 127", "E_Mail": "info@bobrumball.org", "Website": "www.bobrumball.org", "ADDRESS_OR": "150 Railside Rd", "GC_WARD": "Don Valley East (34)", "GC_LONGITU": -79.380526, "GC_LATITUD": 43.73475, "GC_X": 314408.646, "GC_Y": 4843650.065, "Type": "Developmental" }, "geometry": { "type": "Point", "coordinates": [ -79.380526, 43.73475 ] } },
{ "type": "Feature", "properties": { "ID": 41, "Organizati": "Salvation Army, Broadview Village, Enrichment Program", "Office_Pho": "416-285-4373", "E_Mail": null, "Website": "www.salvationarmy.ca", "ADDRESS_OR": "112 Merton St", "GC_WARD": "St. Paul's (22)", "GC_LONGITU": -79.326025, "GC_LATITUD": 43.737573, "GC_X": 318798.361, "GC_Y": 4843971.441, "Type": "Developmental" }, "geometry": { "type": "Point", "coordinates": [ -79.326025, 43.737573 ] } },
{ "type": "Feature", "properties": { "ID": 42, "Organizati": "Geneva Centre for Autism, Adult Services", "Office_Pho": "416-322-7877 * Intake 1-855-372-3858 (1-855-DS-ADULT)", "E_Mail": "info@autism.net", "Website": "www.autism.net", "ADDRESS_OR": "3615 Danforth Ave", "GC_WARD": "Scarborough Southwest (36)", "GC_LONGITU": -79.392809, "GC_LATITUD": 43.69707, "GC_X": 313424.367, "GC_Y": 4839463.582, "Type": "Developmental" }, "geometry": { "type": "Point", "coordinates": [ -79.392809, 43.69707 ] } },
{ "type": "Feature", "properties": { "ID": 43, "Organizati": "Hellenic Hope Centre for Persons with Special Needs", "Office_Pho": "416-850-4673 ; 416-850-HOPE", "E_Mail": null, "Website": null, "ADDRESS_OR": "2700 Dufferin St", "GC_WARD": "Eglinton-Lawrence (15)", "GC_LONGITU": -79.268389, "GC_LATITUD": 43.695198, "GC_X": 323454.046, "GC_Y": 4839275.019, "Type": "Developmental" }, "geometry": { "type": "Point", "coordinates": [ -79.268389, 43.695198 ] } },
{ "type": "Feature", "properties": { "ID": 44, "Organizati": "JVS Toronto, Al Green Resource Centre", "Office_Pho": "416-782-3976", "E_Mail": "algreen@jvstoronto.org", "Website": "www.jvstoronto.org", "ADDRESS_OR": "4130 Lawrence Ave E", "GC_WARD": "Scarborough East (43)", "GC_LONGITU": -79.453993, "GC_LATITUD": 43.701713, "GC_X": 308492.598, "GC_Y": 4839973.954, "Type": "Developmental" }, "geometry": { "type": "Point", "coordinates": [ -79.453993, 43.701713 ] } },
{ "type": "Feature", "properties": { "ID": 45, "Organizati": "Pines Adult Day Centre", "Office_Pho": "416-284-7397", "E_Mail": "info@pinesadultdaycentre.com", "Website": "www.pinesadultdaycentre.com", "ADDRESS_OR": "2295 St Clair Ave W", "GC_WARD": "York South-Weston (11)", "GC_LONGITU": -79.192698, "GC_LATITUD": 43.768637, "GC_X": 329525.059, "GC_Y": 4847453.376, "Type": "Developmental" }, "geometry": { "type": "Point", "coordinates": [ -79.192698, 43.768637 ] } },
{ "type": "Feature", "properties": { "ID": 46, "Organizati": "Luso Canadian Charitable Society", "Office_Pho": "416-761-9761", "E_Mail": "m.santos@lusoccs.org", "Website": "www.lusoccs.org", "ADDRESS_OR": "551 Kennedy Rd", "GC_WARD": "Scarborough Southwest (35)", "GC_LONGITU": -79.478209, "GC_LATITUD": 43.670006, "GC_X": 306541.592, "GC_Y": 4836450.644, "Type": "Developmental" }, "geometry": { "type": "Point", "coordinates": [ -79.478209, 43.670006 ] } },
{ "type": "Feature", "properties": { "ID": 47, "Organizati": "Moeen Centre For Physically Disabled and Developmentally Challenged Young Adults", "Office_Pho": "Administration 416-424-4026 ; Programs and intake 416-264-5809", "E_Mail": "moeencentre@hotmail.com", "Website": "www.moeencentre.org", "ADDRESS_OR": null, "GC_WARD": null, "GC_LONGITU": -79.262995, "GC_LATITUD": 43.721332, "GC_X": 323880.552, "GC_Y": 4842179.614, "Type": "Developmental" }, "geometry": { "type": "Point", "coordinates": [ -79.262995, 43.721332 ] } },
{ "type": "Feature", "properties": { "ID": 1, "Organizati": "Hearing Clinic (The)", "Office_Pho": "416-266-8300", "E_Mail": "info@thehearingclinic.ca", "Website": "www.thehearingclinic.ca", "ADDRESS_OR": "2636 Eglinton Ave E", "GC_WARD": "Scarborough Centre (37)", "GC_LONGITU": -79.251176, "GC_LATITUD": 43.73644, "GC_X": 324827.839, "GC_Y": 4843860.817, "Type": "Physical" }, "geometry": { "type": "Point", "coordinates": [ -79.251176, 43.73644 ] } },
{ "type": "Feature", "properties": { "ID": 2, "Organizati": "Helix Hearing Care Centre", "Office_Pho": "416-298-4575", "E_Mail": null, "Website": null, "ADDRESS_OR": "4040 Finch Ave E", "GC_WARD": "Scarborough-Agincourt (39)", "GC_LONGITU": -79.293752, "GC_LATITUD": 43.802434, "GC_X": 321380.169, "GC_Y": 4851183.139, "Type": "Physical" }, "geometry": { "type": "Point", "coordinates": [ -79.293752, 43.802434 ] } },
{ "type": "Feature", "properties": { "ID": 3, "Organizati": "ListenUP! Canada, Scarborough Centenary", "Office_Pho": "416-283-1940", "E_Mail": "info@listenupcanada.com", "Website": "www.listenupcanada.com", "ADDRESS_OR": "2863 Ellesmere Rd", "GC_WARD": "Scarborough East (43)", "GC_LONGITU": -79.205983, "GC_LATITUD": 43.781113, "GC_X": 328450.423, "GC_Y": 4848836.584, "Type": "Physical" }, "geometry": { "type": "Point", "coordinates": [ -79.205983, 43.781113 ] } },
{ "type": "Feature", "properties": { "ID": 4, "Organizati": "West Hill Physio and Rehab", "Office_Pho": "416-724-6075", "E_Mail": "westhillphysio@gmail.com", "Website": "www.westhillphysio.com", "ADDRESS_OR": "4410 Kingston Rd", "GC_WARD": "Scarborough East (43)", "GC_LONGITU": -79.190342, "GC_LATITUD": 43.768232, "GC_X": 329714.95, "GC_Y": 4847409.112, "Type": "Physical" }, "geometry": { "type": "Point", "coordinates": [ -79.190342, 43.768232 ] } },
{ "type": "Feature", "properties": { "ID": 5, "Organizati": "HPU Rehab", "Office_Pho": "416-739-1267", "E_Mail": "info@hpurehab.com", "Website": "www.hpurehab.com", "ADDRESS_OR": "220 Wildcat Rd", "GC_WARD": "York West (8)", "GC_LONGITU": -79.489347, "GC_LATITUD": 43.778293, "GC_X": 305642.09, "GC_Y": 4848480.566, "Type": "Physical" }, "geometry": { "type": "Point", "coordinates": [ -79.489347, 43.778293 ] } },
{ "type": "Feature", "properties": { "ID": 6, "Organizati": "John's Orthopedic Specialties - Toronto", "Office_Pho": "416-247-7104", "E_Mail": "rbogad@johnsorthopedic.com", "Website": null, "ADDRESS_OR": "2540 Weston Rd", "GC_WARD": "York South-Weston (11)", "GC_LONGITU": -79.534666, "GC_LATITUD": 43.709066, "GC_X": 301990.798, "GC_Y": 4840790.501, "Type": "Physical" }, "geometry": { "type": "Point", "coordinates": [ -79.534666, 43.709066 ] } },
{ "type": "Feature", "properties": { "ID": 7, "Organizati": "MEDIChair - Toronto (North York), MEDIChair  - Toronto (North York)", "Office_Pho": "416-222-5281", "E_Mail": "torontonorth@medichair.ca", "Website": "torontonorth.medichair.com\/", "ADDRESS_OR": "5841 Yonge St", "GC_WARD": "Willowdale (24)", "GC_LONGITU": -79.416429, "GC_LATITUD": 43.786418, "GC_X": 311510.597, "GC_Y": 4849387.558, "Type": "Physical" }, "geometry": { "type": "Point", "coordinates": [ -79.416429, 43.786418 ] } },
{ "type": "Feature", "properties": { "ID": 8, "Organizati": "Motion Specialties - Toronto", "Office_Pho": "416-751-0400", "E_Mail": "toronto@motionspecialties.com", "Website": "www.motionspecialties.com", "ADDRESS_OR": "72 Carnforth Rd", "GC_WARD": "Don Valley East (34)", "GC_LONGITU": -79.318848, "GC_LATITUD": 43.737456, "GC_X": 319376.51, "GC_Y": 4843959.595, "Type": "Physical" }, "geometry": { "type": "Point", "coordinates": [ -79.318848, 43.737456 ] } },
{ "type": "Feature", "properties": { "ID": 9, "Organizati": "Nu-Life Home Health Care", "Office_Pho": "416-633-3457", "E_Mail": "nulifehealth@gmail.com", "Website": "www.nulifehealth.ca", "ADDRESS_OR": "2801 Keele St", "GC_WARD": "York Centre (9)", "GC_LONGITU": -79.482396, "GC_LATITUD": 43.729215, "GC_X": 306202.708, "GC_Y": 4843028.414, "Type": "Physical" }, "geometry": { "type": "Point", "coordinates": [ -79.482396, 43.729215 ] } },
{ "type": "Feature", "properties": { "ID": 10, "Organizati": "SureFit Surgical Supply - Orthotics", "Office_Pho": "416-225-0880", "E_Mail": null, "Website": null, "ADDRESS_OR": "301 Finch Ave W", "GC_WARD": "Willowdale (23)", "GC_LONGITU": -79.442304, "GC_LATITUD": 43.77373, "GC_X": 309429.25, "GC_Y": 4847975.192, "Type": "Physical" }, "geometry": { "type": "Point", "coordinates": [ -79.442304, 43.77373 ] } },
{ "type": "Feature", "properties": { "ID": 11, "Organizati": "HealthOne Medical Centre", "Office_Pho": "416-223-6666", "E_Mail": "info@healthonemedicalcentre.com", "Website": "healthonemedicalcentre.com", "ADDRESS_OR": "5292 Yonge St", "GC_WARD": "Willowdale (23)", "GC_LONGITU": -79.414043, "GC_LATITUD": 43.772414, "GC_X": 311704.256, "GC_Y": 4847831.926, "Type": "Physical" }, "geometry": { "type": "Point", "coordinates": [ -79.414043, 43.772414 ] } },
{ "type": "Feature", "properties": { "ID": 12, "Organizati": "Baycrest, Baycrest Hospital, Ben and Hilda Katz Building", "Office_Pho": "416-785-2500", "E_Mail": "dforseniors@baycrest.org", "Website": "www.baycrest.org", "ADDRESS_OR": "3560 Bathurst St", "GC_WARD": "Eglinton-Lawrence (15)", "GC_LONGITU": -79.434147, "GC_LATITUD": 43.730064, "GC_X": 310089.764, "GC_Y": 4843124.674, "Type": "Physical" }, "geometry": { "type": "Point", "coordinates": [ -79.434147, 43.730064 ] } },
{ "type": "Feature", "properties": { "ID": 13, "Organizati": "Bell Canada Accessibility Services Centre", "Office_Pho": null, "E_Mail": "accessible@bell.ca", "Website": "www.bell.ca\/accessibility", "ADDRESS_OR": "2395 Bayview Ave", "GC_WARD": "Don Valley West (25)", "GC_LONGITU": -79.380526, "GC_LATITUD": 43.73475, "GC_X": 314408.646, "GC_Y": 4843650.065, "Type": "Physical" }, "geometry": { "type": "Point", "coordinates": [ -79.380526, 43.73475 ] } },
{ "type": "Feature", "properties": { "ID": 14, "Organizati": "Bob Rumball Centre for the Deaf", "Office_Pho": "416-449-9651", "E_Mail": "info@bobrumball.org", "Website": "www.bobrumball.org", "ADDRESS_OR": "271 Spadina Rd", "GC_WARD": "St. Paul's (22)", "GC_LONGITU": -79.407672, "GC_LATITUD": 43.677194, "GC_X": 312229.036, "GC_Y": 4837253.001, "Type": "Physical" }, "geometry": { "type": "Point", "coordinates": [ -79.407672, 43.677194 ] } },
{ "type": "Feature", "properties": { "ID": 15, "Organizati": "Canadian Hearing Society, Toronto Regional Office", "Office_Pho": "Reception 416-928-2504 ; Phone Menu 416-928-2500", "E_Mail": "info@chs.ca", "Website": "www.chs.ca", "ADDRESS_OR": "1929 Bayview Ave", "GC_WARD": "Don Valley West (26)", "GC_LONGITU": -79.377527, "GC_LATITUD": 43.71734, "GC_X": 314653.112, "GC_Y": 4841716.225, "Type": "Physical" }, "geometry": { "type": "Point", "coordinates": [ -79.377527, 43.71734 ] } },
{ "type": "Feature", "properties": { "ID": 16, "Organizati": "CNIB, Toronto Region", "Office_Pho": "416-486-2500", "E_Mail": "info@cnib.ca", "Website": "www.cnib.ca", "ADDRESS_OR": "40 Holly St", "GC_WARD": "St. Paul's (22)", "GC_LONGITU": -79.39667, "GC_LATITUD": 43.705446, "GC_X": 313112.318, "GC_Y": 4840392.818, "Type": "Physical" }, "geometry": { "type": "Point", "coordinates": [ -79.39667, 43.705446 ] } },
{ "type": "Feature", "properties": { "ID": 17, "Organizati": "Easter Seals Canada", "Office_Pho": "416-932-8382", "E_Mail": "info@easterseals.ca", "Website": "www.easterseals.ca", "ADDRESS_OR": "2867 Ellesmere Rd", "GC_WARD": "Scarborough East (43)", "GC_LONGITU": -79.204964, "GC_LATITUD": 43.78009, "GC_X": 328533.077, "GC_Y": 4848722.275, "Type": "Physical" }, "geometry": { "type": "Point", "coordinates": [ -79.204964, 43.78009 ] } },
{ "type": "Feature", "properties": { "ID": 18, "Organizati": "Rouge Valley Health System, Rouge Valley Centenary", "Office_Pho": "416-284-8131", "E_Mail": "patientrelations@rougevalley.ca", "Website": "www.rougevalley.ca", "ADDRESS_OR": "130 Dunn Ave", "GC_WARD": "Parkdale-High Park (14)", "GC_LONGITU": -79.433086, "GC_LATITUD": 43.635008, "GC_X": 310183.58, "GC_Y": 4832564.445, "Type": "Physical" }, "geometry": { "type": "Point", "coordinates": [ -79.433086, 43.635008 ] } },
{ "type": "Feature", "properties": { "ID": 19, "Organizati": "University Health Network, Toronto Rehabilitation Institute, EW Bickle Centre for Complex Continuing Care", "Office_Pho": "416-597-3422 ext 2000 ; 416-59-REHAB ext 2000", "E_Mail": null, "Website": "www.uhn.ca\/torontorehab", "ADDRESS_OR": "479 Dundas St W", "GC_WARD": "Trinity-Spadina (20)", "GC_LONGITU": -79.397185, "GC_LATITUD": 43.652927, "GC_X": 313077.658, "GC_Y": 4834558.965, "Type": "Physical" }, "geometry": { "type": "Point", "coordinates": [ -79.397185, 43.652927 ] } },
{ "type": "Feature", "properties": { "ID": 20, "Organizati": "Carefirst Seniors and Community Services Association, South Toronto Office\/Helena Lam Community Services Centre", "Office_Pho": "416-585-2013; 416-502-2323", "E_Mail": "sto@carefirstseniors.com", "Website": "www.carefirstseniors.com", "ADDRESS_OR": "497 Wilson Ave", "GC_WARD": "York Centre (10)", "GC_LONGITU": -79.445446, "GC_LATITUD": 43.734762, "GC_X": 309179.101, "GC_Y": 4843645.874, "Type": "Physical" }, "geometry": { "type": "Point", "coordinates": [ -79.445446, 43.734762 ] } },
{ "type": "Feature", "properties": { "ID": 21, "Organizati": "Lumacare Services", "Office_Pho": "416-398-5510 * Customer Service 416-398-5511", "E_Mail": "info@lumacare.ca", "Website": "www.lumacare.ca", "ADDRESS_OR": "1 Concorde Gate", "GC_WARD": "Don Valley West (26)", "GC_LONGITU": -79.329277, "GC_LATITUD": 43.728846, "GC_X": 318538.395, "GC_Y": 4843001.383, "Type": "Physical" }, "geometry": { "type": "Point", "coordinates": [ -79.329277, 43.728846 ] } },
{ "type": "Feature", "properties": { "ID": 22, "Organizati": "Easter Seals Ontario, Head Office", "Office_Pho": "416-421-8377", "E_Mail": "info@easterseals.org", "Website": "www.easterseals.org", "ADDRESS_OR": "51 Dockside Dr", "GC_WARD": "Toronto Centre-Rosedale (28)", "GC_LONGITU": -79.36547, "GC_LATITUD": 43.643939, "GC_X": 315637.625, "GC_Y": 4833564.141, "Type": "Physical" }, "geometry": { "type": "Point", "coordinates": [ -79.36547, 43.643939 ] } },
{ "type": "Feature", "properties": { "ID": 23, "Organizati": "George Brown College, WAVE Clinic", "Office_Pho": "416-415-4547", "E_Mail": "chsclientservices@georgebrown.ca", "Website": "www.georgebrown.ca\/clinic", "ADDRESS_OR": "555 University Ave", "GC_WARD": "Toronto Centre-Rosedale (27)", "GC_LONGITU": -79.387437, "GC_LATITUD": 43.657372, "GC_X": 313863.588, "GC_Y": 4835052.944, "Type": "Physical" }, "geometry": { "type": "Point", "coordinates": [ -79.387437, 43.657372 ] } },
{ "type": "Feature", "properties": { "ID": 24, "Organizati": "Hospital for Sick Children", "Office_Pho": "Switchboard 416-813-1500 ; Patient Inquiry 416-813-6621", "E_Mail": null, "Website": "www.sickkids.ca", "ADDRESS_OR": "20 Adelaide St E", "GC_WARD": "Toronto Centre-Rosedale (28)", "GC_LONGITU": -79.37766, "GC_LATITUD": 43.650869, "GC_X": 314653.011, "GC_Y": 4834332.508, "Type": "Physical" }, "geometry": { "type": "Point", "coordinates": [ -79.37766, 43.650869 ] } },
{ "type": "Feature", "properties": { "ID": 25, "Organizati": "Ontario Association of Optometrists, Eye See, Eye Learn", "Office_Pho": "905-826-3522", "E_Mail": "esel@optom.on.ca", "Website": "www.optom.on.ca", "ADDRESS_OR": "1235 Wilson Ave", "GC_WARD": "York Centre (9)", "GC_LONGITU": -79.489216, "GC_LATITUD": 43.724258, "GC_X": 305653.118, "GC_Y": 4842478.556, "Type": "Physical" }, "geometry": { "type": "Point", "coordinates": [ -79.489216, 43.724258 ] } },
{ "type": "Feature", "properties": { "ID": 26, "Organizati": "Humber River Hospital", "Office_Pho": "416-242-1000", "E_Mail": null, "Website": "www.hrh.ca", "ADDRESS_OR": "520 Sutherland Dr", "GC_WARD": "Don Valley West (26)", "GC_LONGITU": -79.369712, "GC_LATITUD": 43.718489, "GC_X": 315282.663, "GC_Y": 4841844.904, "Type": "Physical" }, "geometry": { "type": "Point", "coordinates": [ -79.369712, 43.718489 ] } },
{ "type": "Feature", "properties": { "ID": 27, "Organizati": "University Health Network, Toronto Rehabilitation Institute, Lyndhurst Centre", "Office_Pho": "416-597-3422 ext 6000 ; 416-59-REHAB ext 6000", "E_Mail": null, "Website": "www.uhn.ca\/torontorehab", "ADDRESS_OR": "600 University Ave", "GC_WARD": "Trinity-Spadina (20)", "GC_LONGITU": -79.390445, "GC_LATITUD": 43.657536, "GC_X": 313620.955, "GC_Y": 4835070.86, "Type": "Physical" }, "geometry": { "type": "Point", "coordinates": [ -79.390445, 43.657536 ] } },
{ "type": "Feature", "properties": { "ID": 28, "Organizati": "Mount Sinai Hospital", "Office_Pho": "Switchboard 416-596-4200 * Patient Inquiry 416-586-8300", "E_Mail": "communicationsandmarketing@mtsinai.on.ca", "Website": "www.mtsinai.on.ca", "ADDRESS_OR": "4001 Leslie St", "GC_WARD": "Willowdale (24)", "GC_LONGITU": -79.362457, "GC_LATITUD": 43.769627, "GC_X": 315857.843, "GC_Y": 4847526.976, "Type": "Physical" }, "geometry": { "type": "Point", "coordinates": [ -79.362457, 43.769627 ] } },
{ "type": "Feature", "properties": { "ID": 29, "Organizati": "North York General Hospital", "Office_Pho": "416-756-6000", "E_Mail": null, "Website": "www.nygh.on.ca", "ADDRESS_OR": "10 Overlea Blvd", "GC_WARD": "Don Valley West (26)", "GC_LONGITU": -79.35219, "GC_LATITUD": 43.703481, "GC_X": 316697.481, "GC_Y": 4840179.813, "Type": "Physical" }, "geometry": { "type": "Point", "coordinates": [ -79.35219, 43.703481 ] } },
{ "type": "Feature", "properties": { "ID": 30, "Organizati": "March of Dimes Canada, Head Office", "Office_Pho": "416-425-3463 ; 416-425-DIME", "E_Mail": "info@marchofdimes.ca", "Website": "www.marchofdimes.ca", "ADDRESS_OR": "43 Wellesley St E", "GC_WARD": "Toronto Centre-Rosedale (27)", "GC_LONGITU": -79.382364, "GC_LATITUD": 43.665051, "GC_X": 314271.583, "GC_Y": 4835906.556, "Type": "Physical" }, "geometry": { "type": "Point", "coordinates": [ -79.382364, 43.665051 ] } },
{ "type": "Feature", "properties": { "ID": 31, "Organizati": "Sunnybrook Health Sciences Centre, Holland Orthopaedic and Arthritic Centre", "Office_Pho": "416-967-8500", "E_Mail": null, "Website": "www.sunnybrook.ca", "ADDRESS_OR": "4920 Dundas St W", "GC_WARD": "Etobicoke-Lakeshore (5)", "GC_LONGITU": -79.529117, "GC_LATITUD": 43.648622, "GC_X": 302435.106, "GC_Y": 4834076.265, "Type": "Physical" }, "geometry": { "type": "Point", "coordinates": [ -79.529117, 43.648622 ] } },
{ "type": "Feature", "properties": { "ID": 32, "Organizati": "BALANCE for Blind Adults", "Office_Pho": "416-236-1796", "E_Mail": "info@balancefba.org", "Website": "www.balancefba.org", "ADDRESS_OR": "3276 St Clair Ave E", "GC_WARD": "Scarborough Southwest (35)", "GC_LONGITU": -79.285199, "GC_LATITUD": 43.713968, "GC_X": 322093.622, "GC_Y": 4841356.641, "Type": "Physical" }, "geometry": { "type": "Point", "coordinates": [ -79.285199, 43.713968 ] } },
{ "type": "Feature", "properties": { "ID": 33, "Organizati": "Providence Healthcare", "Office_Pho": "Providence Hospital 416-285-3666 * Long term care 416-285-3666 ext 4433 * Adult Day Program 416-285-3803", "E_Mail": "info@providence.on.ca", "Website": "www.providence.on.ca", "ADDRESS_OR": "550 University Ave", "GC_WARD": "Trinity-Spadina (20)", "GC_LONGITU": -79.389958, "GC_LATITUD": 43.65667, "GC_X": 313660.392, "GC_Y": 4834974.682, "Type": "Physical" }, "geometry": { "type": "Point", "coordinates": [ -79.389958, 43.65667 ] } },
{ "type": "Feature", "properties": { "ID": 34, "Organizati": "University Health Network, Toronto Rehabilitation Institute, University Centre", "Office_Pho": "416-597-3422, ext 3000 ; 416-59-REHAB, ext 3000", "E_Mail": null, "Website": "www.uhn.ca\/torontorehab", "ADDRESS_OR": "150 Sherway Dr", "GC_WARD": "Etobicoke-Lakeshore (5)", "GC_LONGITU": -79.562814, "GC_LATITUD": 43.609302, "GC_X": 299713.906, "GC_Y": 4829708.466, "Type": "Physical" }, "geometry": { "type": "Point", "coordinates": [ -79.562814, 43.609302 ] } },
{ "type": "Feature", "properties": { "ID": 35, "Organizati": "Trillium Health Partners, Queensway Health Centre", "Office_Pho": "416-259-6671", "E_Mail": null, "Website": "www.trilliumhealthpartners.ca", "ADDRESS_OR": "890 Yonge St", "GC_WARD": "Toronto Centre-Rosedale (27)", "GC_LONGITU": -79.388355, "GC_LATITUD": 43.673298, "GC_X": 313787.254, "GC_Y": 4836822.063, "Type": "Physical" }, "geometry": { "type": "Point", "coordinates": [ -79.388355, 43.673298 ] } },
{ "type": "Feature", "properties": { "ID": 36, "Organizati": "Foundation Fighting Blindness", "Office_Pho": "416-360-4200", "E_Mail": "info@ffb.ca", "Website": "www.ffb.ca", "ADDRESS_OR": "625 Runnymede Rd", "GC_WARD": "Parkdale-High Park (13)", "GC_LONGITU": -79.48113, "GC_LATITUD": 43.664182, "GC_X": 306306.25, "GC_Y": 4835803.616, "Type": "Physical" }, "geometry": { "type": "Point", "coordinates": [ -79.48113, 43.664182 ] } },
{ "type": "Feature", "properties": { "ID": 37, "Organizati": "Runnymede Healthcare Centre", "Office_Pho": "416-762-7316", "E_Mail": "communications@runnymedehc.ca", "Website": "www.runnymedehc.ca", "ADDRESS_OR": "47 Austin Terrace", "GC_WARD": "St. Paul's (21)", "GC_LONGITU": -79.415947, "GC_LATITUD": 43.678123, "GC_X": 311561.743, "GC_Y": 4837355.518, "Type": "Physical" }, "geometry": { "type": "Point", "coordinates": [ -79.415947, 43.678123 ] } },
{ "type": "Feature", "properties": { "ID": 38, "Organizati": "Salvation Army, Toronto Grace Health Centre", "Office_Pho": "416-925-2251", "E_Mail": "info@torontograce.org", "Website": "www.torontograce.org", "ADDRESS_OR": "3050 Lawrence Ave E", "GC_WARD": "Scarborough Centre (38)", "GC_LONGITU": -79.247505, "GC_LATITUD": 43.756157, "GC_X": 325116.875, "GC_Y": 4846052.103, "Type": "Physical" }, "geometry": { "type": "Point", "coordinates": [ -79.247505, 43.756157 ] } },
{ "type": "Feature", "properties": { "ID": 39, "Organizati": "Scarborough Hospital, General Campus", "Office_Pho": "416-438-2911", "E_Mail": null, "Website": "TSH.to", "ADDRESS_OR": "10 St Mary St", "GC_WARD": "Toronto Centre-Rosedale (27)", "GC_LONGITU": -79.386217, "GC_LATITUD": 43.668107, "GC_X": 313960.409, "GC_Y": 4836245.665, "Type": "Physical" }, "geometry": { "type": "Point", "coordinates": [ -79.386217, 43.668107 ] } },
{ "type": "Feature", "properties": { "ID": 40, "Organizati": "Society of Sharing", "Office_Pho": "416-413-0380", "E_Mail": "info@societyofsharing.org", "Website": "www.societyofsharing.org", "ADDRESS_OR": "285 Cummer Ave", "GC_WARD": "Willowdale (24)", "GC_LONGITU": -79.404736, "GC_LATITUD": 43.789596, "GC_X": 312451.6, "GC_Y": 4849740.734, "Type": "Physical" }, "geometry": { "type": "Point", "coordinates": [ -79.404736, 43.789596 ] } },
{ "type": "Feature", "properties": { "ID": 41, "Organizati": "Sunnybrook Health Sciences Centre, St John's Rehab", "Office_Pho": "416-226-6780", "E_Mail": null, "Website": "www.sunnybrook.ca\/stjohnsrehab", "ADDRESS_OR": "30 The Queensway", "GC_WARD": "Parkdale-High Park (14)", "GC_LONGITU": -79.450101, "GC_LATITUD": 43.639358, "GC_X": 308810.416, "GC_Y": 4833046.8, "Type": "Physical" }, "geometry": { "type": "Point", "coordinates": [ -79.450101, 43.639358 ] } },
{ "type": "Feature", "properties": { "ID": 42, "Organizati": "St Joseph's Health Centre", "Office_Pho": "416-530-6000", "E_Mail": null, "Website": "www.stjoe.on.ca", "ADDRESS_OR": "2 Surrey Pl", "GC_WARD": "Toronto Centre-Rosedale (27)", "GC_LONGITU": -79.388744, "GC_LATITUD": 43.661151, "GC_X": 313757.599, "GC_Y": 4835472.59, "Type": "Physical" }, "geometry": { "type": "Point", "coordinates": [ -79.388744, 43.661151 ] } },
{ "type": "Feature", "properties": { "ID": 43, "Organizati": "Surrey Place Centre", "Office_Pho": "416-925-5141", "E_Mail": "info@surreyplace.on.ca", "Website": "www.surreyplace.on.ca", "ADDRESS_OR": "825 Coxwell Ave", "GC_WARD": "Beaches-East York (31)", "GC_LONGITU": -79.324954, "GC_LATITUD": 43.689832, "GC_X": 318895.789, "GC_Y": 4838667.766, "Type": "Physical" }, "geometry": { "type": "Point", "coordinates": [ -79.324954, 43.689832 ] } },
{ "type": "Feature", "properties": { "ID": 44, "Organizati": "Toronto East General Hospital", "Office_Pho": "Switchboard 416-461-8272 ; Patient Directory Line 416-469-6487", "E_Mail": "community@tegh.on.ca", "Website": "www.tegh.on.ca", "ADDRESS_OR": "200 Elizabeth St", "GC_WARD": "Toronto Centre-Rosedale (27)", "GC_LONGITU": -79.387245, "GC_LATITUD": 43.659224, "GC_X": 313878.538, "GC_Y": 4835259.628, "Type": "Physical" }, "geometry": { "type": "Point", "coordinates": [ -79.387245, 43.659224 ] } },
{ "type": "Feature", "properties": { "ID": 45, "Organizati": "University Health Network, Toronto General Hospital", "Office_Pho": "Switchboard 416-340-4800 * Patient Inquiry 416-340-3131", "E_Mail": null, "Website": "www.uhn.ca", "ADDRESS_OR": "399 Bathurst St", "GC_WARD": "Trinity-Spadina (20)", "GC_LONGITU": -79.405688, "GC_LATITUD": 43.653095, "GC_X": 312391.734, "GC_Y": 4834576.813, "Type": "Physical" }, "geometry": { "type": "Point", "coordinates": [ -79.405688, 43.653095 ] } },
{ "type": "Feature", "properties": { "ID": 46, "Organizati": "University Health Network, Toronto Western Hospital", "Office_Pho": "Switchboard 416-603-5800 * Patient Inquiry 416-603-5801", "E_Mail": null, "Website": "www.uhn.ca", "ADDRESS_OR": "16 York Mills Rd", "GC_WARD": "Don Valley West (25)", "GC_LONGITU": -79.404779, "GC_LATITUD": 43.744515, "GC_X": 312453.759, "GC_Y": 4844732.317, "Type": "Physical" }, "geometry": { "type": "Point", "coordinates": [ -79.404779, 43.744515 ] } },
{ "type": "Feature", "properties": { "ID": 47, "Organizati": "Vision Institute of Canada", "Office_Pho": "416-224-2273", "E_Mail": "visioninstitute@globalserve.net", "Website": "visioninstitute.optometry.net", "ADDRESS_OR": "6043 Yonge St", "GC_WARD": "Willowdale (24)", "GC_LONGITU": -79.4177, "GC_LATITUD": 43.790098, "GC_X": 311408.12, "GC_Y": 4849795.384, "Type": "Physical" }, "geometry": { "type": "Point", "coordinates": [ -79.4177, 43.790098 ] } },
{ "type": "Feature", "properties": { "ID": 48, "Organizati": "War Amps, Toronto Branch", "Office_Pho": "416-221-2130", "E_Mail": null, "Website": "www.waramps.ca", "ADDRESS_OR": "82 Buttonwood Ave", "GC_WARD": "York South-Weston (11)", "GC_LONGITU": -79.508968, "GC_LATITUD": 43.689297, "GC_X": 304061.436, "GC_Y": 4838593.648, "Type": "Physical" }, "geometry": { "type": "Point", "coordinates": [ -79.508968, 43.689297 ] } },
{ "type": "Feature", "properties": { "ID": 49, "Organizati": "West Park Healthcare Centre", "Office_Pho": "416-243-3600 ; Intake 416-243-3632", "E_Mail": "feedback@westpark.org", "Website": "www.westpark.org", "ADDRESS_OR": "1167 Weston Rd", "GC_WARD": "York South-Weston (11)", "GC_LONGITU": -79.490132, "GC_LATITUD": 43.687439, "GC_X": 305579.671, "GC_Y": 4838388.133, "Type": "Physical" }, "geometry": { "type": "Point", "coordinates": [ -79.490132, 43.687439 ] } },
{ "type": "Feature", "properties": { "ID": 50, "Organizati": "Humber Community Seniors' Services", "Office_Pho": "416-249-7946", "E_Mail": "info@humberseniors.org", "Website": "www.humberseniors.org", "ADDRESS_OR": "2 Buchan Crt", "GC_WARD": "Don Valley East (33)", "GC_LONGITU": -79.359454, "GC_LATITUD": 43.773074, "GC_X": 316098.896, "GC_Y": 4847910.337, "Type": "Physical" }, "geometry": { "type": "Point", "coordinates": [ -79.359454, 43.773074 ] } },
{ "type": "Feature", "properties": { "ID": 51, "Organizati": "North York General Hospital, Seniors' Health Centre", "Office_Pho": "Long Term Care Facility 416-756-0066 ; Specialized Geriatric Services 416-756-6050", "E_Mail": null, "Website": "www.nygh.on.ca", "ADDRESS_OR": "381 Yonge St", "GC_WARD": "Toronto Centre-Rosedale (27)", "GC_LONGITU": -79.381572, "GC_LATITUD": 43.658757, "GC_X": 314336.45, "GC_Y": 4835207.477, "Type": "Physical" }, "geometry": { "type": "Point", "coordinates": [ -79.381572, 43.658757 ] } },
{ "type": "Feature", "properties": { "ID": 52, "Organizati": "Yonge Street Mission, Evergreen Centre for Street Youth, Evergreen Health Centre", "Office_Pho": "416-929-9614 ext 2238", "E_Mail": "healthcentre@ysm.ca", "Website": "www.ysm.ca", "ADDRESS_OR": "300 Silver Star Blvd", "GC_WARD": "Scarborough-Rouge River (41)", "GC_LONGITU": -79.295565, "GC_LATITUD": 43.812379, "GC_X": 321231.349, "GC_Y": 4852288.562, "Type": "Physical" }, "geometry": { "type": "Point", "coordinates": [ -79.295565, 43.812379 ] } },
{ "type": "Feature", "properties": { "ID": 53, "Organizati": "Carefirst Seniors and Community Services Association, Administrative Office\/North Toronto Office", "Office_Pho": "416-502-2323", "E_Mail": "info@carefirstseniors.com", "Website": "www.carefirstseniors.com", "ADDRESS_OR": "2398 Yonge St", "GC_WARD": "Eglinton-Lawrence (16)", "GC_LONGITU": -79.399463, "GC_LATITUD": 43.709714, "GC_X": 312886.63, "GC_Y": 4840866.696, "Type": "Physical" }, "geometry": { "type": "Point", "coordinates": [ -79.399463, 43.709714 ] } },
{ "type": "Feature", "properties": { "ID": 54, "Organizati": "Anne Johnston Health Station", "Office_Pho": "416-486-8666", "E_Mail": "info@ajhs.ca", "Website": "www.ajhs.ca", "ADDRESS_OR": "46 Raeburn Ave", "GC_WARD": "York Centre (10)", "GC_LONGITU": -79.434526, "GC_LATITUD": 43.74491, "GC_X": 310057.93, "GC_Y": 4844773.867, "Type": "Physical" }, "geometry": { "type": "Point", "coordinates": [ -79.434526, 43.74491 ] } },
{ "type": "Feature", "properties": { "ID": 55, "Organizati": "Eye Contact", "Office_Pho": "416-398-2590", "E_Mail": "i.contact@rogers.com", "Website": null, "ADDRESS_OR": "150 Kilgour Rd", "GC_WARD": "Don Valley West (26)", "GC_LONGITU": -79.372966, "GC_LATITUD": 43.718418, "GC_X": 315020.435, "GC_Y": 4841836.596, "Type": "Physical" }, "geometry": { "type": "Point", "coordinates": [ -79.372966, 43.718418 ] } },
{ "type": "Feature", "properties": { "ID": 56, "Organizati": "Holland Bloorview Kids Rehabilitation Hospital", "Office_Pho": "416-425-6220", "E_Mail": "info@bloorview.ca", "Website": "www.bloorview.ca", "ADDRESS_OR": "550 University Ave", "GC_WARD": "Trinity-Spadina (20)", "GC_LONGITU": -79.389958, "GC_LATITUD": 43.65667, "GC_X": 313660.392, "GC_Y": 4834974.682, "Type": "Physical" }, "geometry": { "type": "Point", "coordinates": [ -79.389958, 43.65667 ] } },
{ "type": "Feature", "properties": { "ID": 57, "Organizati": "University Health Network, Toronto Rehabilitation Institute", "Office_Pho": "416-597-3422 ; 416-59-REHAB", "E_Mail": null, "Website": "www.uhn.ca\/torontorehab", "ADDRESS_OR": "2395 Bayview Ave", "GC_WARD": "Don Valley West (25)", "GC_LONGITU": -79.380526, "GC_LATITUD": 43.73475, "GC_X": 314408.646, "GC_Y": 4843650.065, "Type": "Physical" }, "geometry": { "type": "Point", "coordinates": [ -79.380526, 43.73475 ] } },
{ "type": "Feature", "properties": { "ID": 58, "Organizati": "Ontario Association of the Deaf", "Office_Pho": "TTY 416-513-1893 ; Voice 416-413-9191", "E_Mail": "office@deafontario.ca", "Website": "www.deafontario.ca", "ADDRESS_OR": "1082 Dundas St W", "GC_WARD": "Trinity-Spadina (19)", "GC_LONGITU": -79.418743, "GC_LATITUD": 43.650058, "GC_X": 311339.363, "GC_Y": 4834237.343, "Type": "Physical" }, "geometry": { "type": "Point", "coordinates": [ -79.418743, 43.650058 ] } },
{ "type": "Feature", "properties": { "ID": 59, "Organizati": "March of Dimes Canada, Assistive Devices Program", "Office_Pho": null, "E_Mail": "adp@marchofdimes.ca", "Website": "www.marchofdimes.ca", "ADDRESS_OR": "2 Trethewey Dr", "GC_WARD": "York South-Weston (12)", "GC_LONGITU": -79.475652, "GC_LATITUD": 43.690859, "GC_X": 306747.222, "GC_Y": 4838767.351, "Type": "Physical" }, "geometry": { "type": "Point", "coordinates": [ -79.475652, 43.690859 ] } },
{ "type": "Feature", "properties": { "ID": 60, "Organizati": "Bellwoods Centres for Community Living, Dundas Project, MILE Program", "Office_Pho": "416-534-1354", "E_Mail": null, "Website": "www.bellwoodscentres.org", "ADDRESS_OR": "210 Empress Ave", "GC_WARD": "Willowdale (23)", "GC_LONGITU": -79.402637, "GC_LATITUD": 43.771739, "GC_X": 312622.846, "GC_Y": 4847756.948, "Type": "Physical" }, "geometry": { "type": "Point", "coordinates": [ -79.402637, 43.771739 ] } },
{ "type": "Feature", "properties": { "ID": 61, "Organizati": "Toronto Foundation for Student Success", "Office_Pho": "416-394-6880", "E_Mail": "info@tfss.ca", "Website": "www.tfss.ca", "ADDRESS_OR": "121 Willowdale Ave", "GC_WARD": "Willowdale (23)", "GC_LONGITU": -79.399846, "GC_LATITUD": 43.76512, "GC_X": 312848.405, "GC_Y": 4847021.933, "Type": "Physical" }, "geometry": { "type": "Point", "coordinates": [ -79.399846, 43.76512 ] } },
{ "type": "Feature", "properties": { "ID": 62, "Organizati": "Canadian Helen Keller Centre", "Office_Pho": "416-225-8989", "E_Mail": "info@chkc.org", "Website": "www.chkc.org", "ADDRESS_OR": "225 Duncan Mill Rd", "GC_WARD": "Don Valley East (34)", "GC_LONGITU": -79.352683, "GC_LATITUD": 43.761437, "GC_X": 316646.367, "GC_Y": 4846618.42, "Type": "Physical" }, "geometry": { "type": "Point", "coordinates": [ -79.352683, 43.761437 ] } },
{ "type": "Feature", "properties": { "ID": 63, "Organizati": "Learning Disabilities Association of Ontario, Toronto District", "Office_Pho": "416-229-1680", "E_Mail": "admin@ldatd.on.ca", "Website": "www.ldatd.on.ca", "ADDRESS_OR": "2395 Bayview Ave", "GC_WARD": "Don Valley West (25)", "GC_LONGITU": -79.380526, "GC_LATITUD": 43.73475, "GC_X": 314408.646, "GC_Y": 4843650.065, "Type": "Physical" }, "geometry": { "type": "Point", "coordinates": [ -79.380526, 43.73475 ] } },
{ "type": "Feature", "properties": { "ID": 64, "Organizati": "Toronto Preschool Speech and Language Services", "Office_Pho": "Intake and Information 416-338-8255 * French 416-635-2616", "E_Mail": "tpsls@toronto.ca", "Website": "www1.toronto.ca\/wps\/portal\/contentonly?vgnextoid=2b62b2f59527a410VgnVCM10000071d60f89RCRD", "ADDRESS_OR": "2395 Bayview Ave", "GC_WARD": "Don Valley West (25)", "GC_LONGITU": -79.380526, "GC_LATITUD": 43.73475, "GC_X": 314408.646, "GC_Y": 4843650.065, "Type": "Physical" }, "geometry": { "type": "Point", "coordinates": [ -79.380526, 43.73475 ] } },
{ "type": "Feature", "properties": { "ID": 65, "Organizati": "Bob Rumball Centre for the Deaf, Day Program", "Office_Pho": "416-449-9651 ext 127", "E_Mail": "info@bobrumball.org", "Website": "www.bobrumball.org", "ADDRESS_OR": "14 St Matthews Rd", "GC_WARD": "Toronto-Danforth (30)", "GC_LONGITU": -79.355235, "GC_LATITUD": 43.665755, "GC_X": 316459.146, "GC_Y": 4835989.19, "Type": "Physical" }, "geometry": { "type": "Point", "coordinates": [ -79.355235, 43.665755 ] } },
{ "type": "Feature", "properties": { "ID": 66, "Organizati": "Bob Rumball Centre for the Deaf, Specialized Parent-Child\/Infant Program", "Office_Pho": "416-449-9651 ext 105", "E_Mail": "skellen@bobrumball.org", "Website": "www.bobrumball.org", "ADDRESS_OR": "551 Kennedy Rd", "GC_WARD": "Scarborough Southwest (35)", "GC_LONGITU": -79.262995, "GC_LATITUD": 43.721332, "GC_X": 323880.552, "GC_Y": 4842179.614, "Type": "Physical" }, "geometry": { "type": "Point", "coordinates": [ -79.262995, 43.721332 ] } },
{ "type": "Feature", "properties": { "ID": 67, "Organizati": "Bridgepoint Active Healthcare, Bridgepoint Hospital", "Office_Pho": "Switchboard 416-461-8252", "E_Mail": "info@bridgepointhealth.ca", "Website": "www.bridgepointhealth.ca", "ADDRESS_OR": "2190 Yonge St", "GC_WARD": "St. Paul's (22)", "GC_LONGITU": -79.398358, "GC_LATITUD": 43.705347, "GC_X": 312976.282, "GC_Y": 4840381.656, "Type": "Physical" }, "geometry": { "type": "Point", "coordinates": [ -79.398358, 43.705347 ] } },
{ "type": "Feature", "properties": { "ID": 68, "Organizati": "Moeen Centre For Physically Disabled and Developmentally Challenged Young Adults", "Office_Pho": "Administration 416-424-4026 ; Programs and intake 416-264-5809", "E_Mail": "moeencentre@hotmail.com", "Website": "www.moeencentre.org", "ADDRESS_OR": "447 Church St", "GC_WARD": "Toronto Centre-Rosedale (27)", "GC_LONGITU": -79.37992, "GC_LATITUD": 43.663907, "GC_X": 314468.912, "GC_Y": 4835779.754, "Type": "Physical" }, "geometry": { "type": "Point", "coordinates": [ -79.37992, 43.663907 ] } },
{ "type": "Feature", "properties": { "ID": 69, "Organizati": "Centre for Physiotherapy", "Office_Pho": "416-484-9295", "E_Mail": "physio4u2c@thecentreforphysiotherapy.com", "Website": "www.thecentreforphysiotherapy.com", "ADDRESS_OR": "1901 Yonge St", "GC_WARD": "St. Paul's (22)", "GC_LONGITU": -79.396253, "GC_LATITUD": 43.698131, "GC_X": 313146.904, "GC_Y": 4839580.168, "Type": "Physical" }, "geometry": { "type": "Point", "coordinates": [ -79.396253, 43.698131 ] } },
{ "type": "Feature", "properties": { "ID": 70, "Organizati": "Church Street Chiropractic and Acupuncture Clinic", "Office_Pho": "416-925-1868", "E_Mail": "drzylich@rogers.com", "Website": null, "ADDRESS_OR": "2175 Danforth Ave", "GC_WARD": "Beaches-East York (32)", "GC_LONGITU": -79.310256, "GC_LATITUD": 43.686079, "GC_X": 320081.588, "GC_Y": 4838253.486, "Type": "Physical" }, "geometry": { "type": "Point", "coordinates": [ -79.310256, 43.686079 ] } },
{ "type": "Feature", "properties": { "ID": 71, "Organizati": "CIMS Home Health Care - Toronto East", "Office_Pho": "416-483-1665", "E_Mail": "yonge@nrxhhc.com", "Website": "www.nrxhhc.com", "ADDRESS_OR": "250 Lawrence Ave W", "GC_WARD": "Eglinton-Lawrence (16)", "GC_LONGITU": -79.413875, "GC_LATITUD": 43.722936, "GC_X": 311723.707, "GC_Y": 4842334.248, "Type": "Physical" }, "geometry": { "type": "Point", "coordinates": [ -79.413875, 43.722936 ] } },
{ "type": "Feature", "properties": { "ID": 72, "Organizati": "DKB Coaching and Wellness Centre", "Office_Pho": "416-691-3939", "E_Mail": "chiro@dkbwellness.com", "Website": "www.dkbwellness.com", "ADDRESS_OR": "1849 Yonge St", "GC_WARD": "St. Paul's (22)", "GC_LONGITU": -79.395927, "GC_LATITUD": 43.69696, "GC_X": 313173.337, "GC_Y": 4839450.154, "Type": "Physical" }, "geometry": { "type": "Point", "coordinates": [ -79.395927, 43.69696 ] } },
{ "type": "Feature", "properties": { "ID": 73, "Organizati": "Eisenhauer and Smith Physiotherapy", "Office_Pho": "416-781-3552", "E_Mail": "info@esphysio.com", "Website": "www.esphysio.com", "ADDRESS_OR": "145 King St. W", "GC_WARD": "Toronto Centre-Rosedale (28)", "GC_LONGITU": -79.383926, "GC_LATITUD": 43.647464, "GC_X": 314148.349, "GC_Y": 4833952.583, "Type": "Physical" }, "geometry": { "type": "Point", "coordinates": [ -79.383926, 43.647464 ] } },
{ "type": "Feature", "properties": { "ID": 74, "Organizati": "Hearing Health Care Consultant Group", "Office_Pho": "416-488-1300", "E_Mail": "hearinghealthcare@live.ca", "Website": null, "ADDRESS_OR": "2790 Bathurst St", "GC_WARD": "Eglinton-Lawrence (15)", "GC_LONGITU": -79.428397, "GC_LATITUD": 43.712525, "GC_X": 310554.612, "GC_Y": 4841176.486, "Type": "Physical" }, "geometry": { "type": "Point", "coordinates": [ -79.428397, 43.712525 ] } },
{ "type": "Feature", "properties": { "ID": 75, "Organizati": "King West Chiropractic Health Centre", "Office_Pho": "416-815-9595", "E_Mail": "info@kingwestchiropractic.com", "Website": "www.kingwestchiropractic.com", "ADDRESS_OR": "840 Coxwell Ave", "GC_WARD": "Toronto-Danforth (29)", "GC_LONGITU": -79.326763, "GC_LATITUD": 43.690159, "GC_X": 318749.589, "GC_Y": 4838704.784, "Type": "Physical" }, "geometry": { "type": "Point", "coordinates": [ -79.326763, 43.690159 ] } },
{ "type": "Feature", "properties": { "ID": 76, "Organizati": "One Step Ahead Mobility Physiotherapy", "Office_Pho": "416-783-7175", "E_Mail": "rebecca@onestepaheadmobility.com", "Website": "www.onestepaheadmobility.com", "ADDRESS_OR": "1450 O'Connor Dr", "GC_WARD": "Beaches-East York (31)", "GC_LONGITU": -79.3068, "GC_LATITUD": 43.713662, "GC_X": 320353.099, "GC_Y": 4841318.407, "Type": "Physical" }, "geometry": { "type": "Point", "coordinates": [ -79.3068, 43.713662 ] } },
{ "type": "Feature", "properties": { "ID": 77, "Organizati": "Orthopaedics Unlimited", "Office_Pho": "416-465-0362", "E_Mail": "traorthunlimited@gmail.com", "Website": null, "ADDRESS_OR": "3107 Bloor St W", "GC_WARD": "Etobicoke-Lakeshore (5)", "GC_LONGITU": -79.516019, "GC_LATITUD": 43.646091, "GC_X": 303491.962, "GC_Y": 4833793.859, "Type": "Physical" }, "geometry": { "type": "Point", "coordinates": [ -79.516019, 43.646091 ] } },
{ "type": "Feature", "properties": { "ID": 78, "Organizati": "Silver Cross - Toronto", "Office_Pho": "416-755-1164", "E_Mail": "dwalters@silvercross.com", "Website": "www.silvercross.com", "ADDRESS_OR": "1243 Bathurst St", "GC_WARD": "St. Paul's (21)", "GC_LONGITU": -79.415268, "GC_LATITUD": 43.676273, "GC_X": 311616.618, "GC_Y": 4837150.064, "Type": "Physical" }, "geometry": { "type": "Point", "coordinates": [ -79.415268, 43.676273 ] } },
{ "type": "Feature", "properties": { "ID": 79, "Organizati": "Spinal Health and Wellness Centre", "Office_Pho": "416-231-2225", "E_Mail": "spinalhealthcentre@rogers.com", "Website": "www.spinalhealthandwellness.ca", "ADDRESS_OR": "1243 Islington Ave", "GC_WARD": "Etobicoke-Lakeshore (5)", "GC_LONGITU": -79.523504, "GC_LATITUD": 43.645928, "GC_X": 302887.79, "GC_Y": 4833776.829, "Type": "Physical" }, "geometry": { "type": "Point", "coordinates": [ -79.523504, 43.645928 ] } },
{ "type": "Feature", "properties": { "ID": 80, "Organizati": "Starkman Surgical Supply Inc", "Office_Pho": "416-534-8410", "E_Mail": "info@starkmanshealth.com", "Website": "www.starkmanshealth.com", "ADDRESS_OR": "12 Wellesley St W", "GC_WARD": "Toronto Centre-Rosedale (27)", "GC_LONGITU": -79.385319, "GC_LATITUD": 43.664935, "GC_X": 314033.275, "GC_Y": 4835893.422, "Type": "Physical" }, "geometry": { "type": "Point", "coordinates": [ -79.385319, 43.664935 ] } },
{ "type": "Feature", "properties": { "ID": 81, "Organizati": "Toronto Hearing Services", "Office_Pho": "416-233-8581", "E_Mail": "westendhearing@bellnet.ca", "Website": "www.audiologycentre.com", "ADDRESS_OR": "2075 Bayview Ave", "GC_WARD": "Don Valley West (25)", "GC_LONGITU": -79.377875, "GC_LATITUD": 43.721938, "GC_X": 314624.052, "GC_Y": 4842227.961, "Type": "Physical" }, "geometry": { "type": "Point", "coordinates": [ -79.377875, 43.721938 ] } },
{ "type": "Feature", "properties": { "ID": 82, "Organizati": "Toronto Wellness Centre", "Office_Pho": "416-920-2722", "E_Mail": null, "Website": "www.torontowellnesscentre.ca", "ADDRESS_OR": "3560 Bathurst St", "GC_WARD": "Eglinton-Lawrence (15)", "GC_LONGITU": -79.434147, "GC_LATITUD": 43.730064, "GC_X": 310089.764, "GC_Y": 4843124.674, "Type": "Physical" }, "geometry": { "type": "Point", "coordinates": [ -79.434147, 43.730064 ] } },
{ "type": "Feature", "properties": { "ID": 83, "Organizati": "Assistive Technology Clinic, Amyotrophic Lateral Sclerosis Program", "Office_Pho": "416-480-5756", "E_Mail": null, "Website": "www.assistivetechnologyclinic.ca", "ADDRESS_OR": "3560 Bathurst St", "GC_WARD": "Eglinton-Lawrence (15)", "GC_LONGITU": -79.434147, "GC_LATITUD": 43.730064, "GC_X": 310089.764, "GC_Y": 4843124.674, "Type": "Physical" }, "geometry": { "type": "Point", "coordinates": [ -79.434147, 43.730064 ] } },
{ "type": "Feature", "properties": { "ID": 84, "Organizati": "Assistive Technology Clinic, Augmentative and Alternative Communication Program (AAC)", "Office_Pho": "416-784-3600", "E_Mail": null, "Website": "www.assistivetechnologyclinic.ca", "ADDRESS_OR": "3560 Bathurst St", "GC_WARD": "Eglinton-Lawrence (15)", "GC_LONGITU": -79.434147, "GC_LATITUD": 43.730064, "GC_X": 310089.764, "GC_Y": 4843124.674, "Type": "Physical" }, "geometry": { "type": "Point", "coordinates": [ -79.434147, 43.730064 ] } },
{ "type": "Feature", "properties": { "ID": 85, "Organizati": "Assistive Technology Clinic, Gait Technology Program", "Office_Pho": "416-784-3600", "E_Mail": null, "Website": "www.assistivetechnologyclinic.ca", "ADDRESS_OR": "1577 Danforth Ave", "GC_WARD": "Beaches-East York (32)", "GC_LONGITU": -79.323046, "GC_LATITUD": 43.683181, "GC_X": 319051.152, "GC_Y": 4837929.136, "Type": "Physical" }, "geometry": { "type": "Point", "coordinates": [ -79.323046, 43.683181 ] } },
{ "type": "Feature", "properties": { "ID": 86, "Organizati": "Assistive Technology Clinic, Out-Patient Postural Seating and Mobility Clinic", "Office_Pho": "416-784-3600", "E_Mail": null, "Website": "www.assistivetechnologyclinic.ca", "ADDRESS_OR": "396 Moore Ave", "GC_WARD": "St. Paul's (22)", "GC_LONGITU": -79.372637, "GC_LATITUD": 43.696975, "GC_X": 315050.658, "GC_Y": 4839454.481, "Type": "Physical" }, "geometry": { "type": "Point", "coordinates": [ -79.372637, 43.696975 ] } },
{ "type": "Feature", "properties": { "ID": 87, "Organizati": "East Toronto Orthopaedic and Sports Injuries Clinic - Coxwell and Danforth and Variety Village", "Office_Pho": "416-691-3943", "E_Mail": "reception@mytorontophysio.com", "Website": "www.mytorontophysio.com", "ADDRESS_OR": "3560 Bathurst St", "GC_WARD": "Eglinton-Lawrence (15)", "GC_LONGITU": -79.434147, "GC_LATITUD": 43.730064, "GC_X": 310089.764, "GC_Y": 4843124.674, "Type": "Physical" }, "geometry": { "type": "Point", "coordinates": [ -79.434147, 43.730064 ] } },
{ "type": "Feature", "properties": { "ID": 88, "Organizati": "Integracare", "Office_Pho": "416-421-4243", "E_Mail": "info@integracare.on.ca", "Website": "www.integracare.on.ca", "ADDRESS_OR": "120 Carlton St", "GC_WARD": "Toronto Centre-Rosedale (27)", "GC_LONGITU": -79.37645, "GC_LATITUD": 43.662731, "GC_X": 314748.652, "GC_Y": 4835650.493, "Type": "Physical" }, "geometry": { "type": "Point", "coordinates": [ -79.37645, 43.662731 ] } },
{ "type": "Feature", "properties": { "ID": 89, "Organizati": "Assistive Technology Clinic", "Office_Pho": "416-784-3600", "E_Mail": null, "Website": "www.assistivetechnologyclinic.ca", "ADDRESS_OR": "100 King St", "GC_WARD": "York South-Weston (11)", "GC_LONGITU": -79.51617, "GC_LATITUD": 43.705876, "GC_X": 303481.316, "GC_Y": 4840435.651, "Type": "Physical" }, "geometry": { "type": "Point", "coordinates": [ -79.51617, 43.705876 ] } },
{ "type": "Feature", "properties": { "ID": 90, "Organizati": "Dilawri Wellness and Rehabilitation Centre", "Office_Pho": "416-960-1919", "E_Mail": "dr.dilawri@on.aibn.com", "Website": "www.drdilawri.ca\/nitin.html", "ADDRESS_OR": "200 St Clair Ave W", "GC_WARD": "St. Paul's (22)", "GC_LONGITU": -79.402738, "GC_LATITUD": 43.686796, "GC_X": 312625.713, "GC_Y": 4838320.208, "Type": "Physical" }, "geometry": { "type": "Point", "coordinates": [ -79.402738, 43.686796 ] } },
{ "type": "Feature", "properties": { "ID": 91, "Organizati": "Hearing Solutions Inc - First Canadian Place", "Office_Pho": "416-216-1845", "E_Mail": "info@hearingsolutions.ca", "Website": "www.hearingsolutions.ca", "ADDRESS_OR": "130 Kingston Rd", "GC_WARD": "Beaches-East York (32)", "GC_LONGITU": -79.311351, "GC_LATITUD": 43.67051, "GC_X": 319997.229, "GC_Y": 4836523.536, "Type": "Physical" }, "geometry": { "type": "Point", "coordinates": [ -79.311351, 43.67051 ] } },
{ "type": "Feature", "properties": { "ID": 92, "Organizati": "Hearing Solutions Inc - St.Clair Ave and Avenue Rd", "Office_Pho": "416-967-4327", "E_Mail": "info@hearingsolutions.ca", "Website": "www.hearingsolutions.ca", "ADDRESS_OR": "1243 Islington Ave", "GC_WARD": "Etobicoke-Lakeshore (5)", "GC_LONGITU": -79.523504, "GC_LATITUD": 43.645928, "GC_X": 302887.79, "GC_Y": 4833776.829, "Type": "Physical" }, "geometry": { "type": "Point", "coordinates": [ -79.523504, 43.645928 ] } },
{ "type": "Feature", "properties": { "ID": 93, "Organizati": "Leslam Company Limited", "Office_Pho": "647-748-4388", "E_Mail": "leslam@rogers.com", "Website": "www.leslam.com", "ADDRESS_OR": "385 The West Mall", "GC_WARD": "Etobicoke Centre (3)", "GC_LONGITU": -79.565317, "GC_LATITUD": 43.642032, "GC_X": 299514.715, "GC_Y": 4833344.703, "Type": "Physical" }, "geometry": { "type": "Point", "coordinates": [ -79.565317, 43.642032 ] } },
{ "type": "Feature", "properties": { "ID": 94, "Organizati": "West-End Hearing Services Ltd.", "Office_Pho": "416-233-8581", "E_Mail": null, "Website": null, "ADDRESS_OR": "4700 Keele St", "GC_WARD": "York West (8)", "GC_LONGITU": -79.502338, "GC_LATITUD": 43.77341, "GC_X": 304596.116, "GC_Y": 4847939.02, "Type": "Physical" }, "geometry": { "type": "Point", "coordinates": [ -79.502338, 43.77341 ] } },
{ "type": "Feature", "properties": { "ID": 95, "Organizati": "Meynell House", "Office_Pho": "416-703-8781", "E_Mail": null, "Website": null, "ADDRESS_OR": "30 St Lawrence St", "GC_WARD": "Toronto Centre-Rosedale (28)", "GC_LONGITU": -79.356982, "GC_LATITUD": 43.655199, "GC_X": 316320.237, "GC_Y": 4834816.262, "Type": "Physical" }, "geometry": { "type": "Point", "coordinates": [ -79.356982, 43.655199 ] } },
{ "type": "Feature", "properties": { "ID": 96, "Organizati": "Stephanie McCaul Supportive Housing Program", "Office_Pho": "416-586-1343", "E_Mail": null, "Website": null, "ADDRESS_OR": "22 McCaul St", "GC_WARD": "Trinity-Spadina (20)", "GC_LONGITU": -79.390483, "GC_LATITUD": 43.65122, "GC_X": 313618.859, "GC_Y": 4834369.14, "Type": "Physical" }, "geometry": { "type": "Point", "coordinates": [ -79.390483, 43.65122 ] } }
]
}
