{
"type": "FeatureCollection",
"name": "heritage_ontario_faith",
"crs": { "type": "name", "properties": { "name": "urn:ogc:def:crs:OGC:1.3:CRS84" } },
"features": [
{ "type": "Feature", "properties": { "ID": 1, "NAME": "126 Scollard Street (former Olivet Congregational Chapel)", "POSTAL": null, "ADDRESS": "126 Scollard Street", "TYPE": "Non-religious", "Latitude": 43.671543, "Longitude": -79.393353 }, "geometry": { "type": "Point", "coordinates": [ -79.393353, 43.671543 ] } },
{ "type": "Feature", "properties": { "ID": 2, "NAME": "Manor Road United Church", "POSTAL": null, "ADDRESS": "240 Manor Road East", "TYPE": "United Church", "Latitude": 43.705295, "Longitude": -79.385315 }, "geometry": { "type": "Point", "coordinates": [ -79.385315, 43.705295 ] } },
{ "type": "Feature", "properties": { "ID": 3, "NAME": "Ennerdale Road Baptist Church", "POSTAL": null, "ADDRESS": "228 Ennerdale Road", "TYPE": "Baptist", "Latitude": 43.694391, "Longitude": -79.453515 }, "geometry": { "type": "Point", "coordinates": [ -79.453515, 43.694391 ] } },
{ "type": "Feature", "properties": { "ID": 4, "NAME": "Yorkminster Park Baptist Church", "POSTAL": null, "ADDRESS": "1585 Yonge Street", "TYPE": "Baptist", "Latitude": 43.690829, "Longitude": -79.394198 }, "geometry": { "type": "Point", "coordinates": [ -79.394198, 43.690829 ] } },
{ "type": "Feature", "properties": { "ID": 5, "NAME": "Anglican Church of the Incarnation", "POSTAL": null, "ADDRESS": "15 Clairtrell Road", "TYPE": "Anglican", "Latitude": 43.767472, "Longitude": -79.390066 }, "geometry": { "type": "Point", "coordinates": [ -79.390066, 43.767472 ] } },
{ "type": "Feature", "properties": { "ID": 6, "NAME": "39 Knox Avenue (formerly Rehoboth Worship Centre, formerly Pine Ridge Presbyterian Church)", "POSTAL": null, "ADDRESS": "39 Knox Avenue", "TYPE": "Unknown", "Latitude": 43.759148, "Longitude": -79.572029 }, "geometry": { "type": "Point", "coordinates": [ -79.572029, 43.759148 ] } },
{ "type": "Feature", "properties": { "ID": 7, "NAME": "Maranatha Fellowship Church of the Deaf", "POSTAL": null, "ADDRESS": "1307 Bloor Street West", "TYPE": "Associated Gospel", "Latitude": 43.658022, "Longitude": -79.443539 }, "geometry": { "type": "Point", "coordinates": [ -79.443539, 43.658022 ] } },
{ "type": "Feature", "properties": { "ID": 8, "NAME": "40 Westmoreland Avenue (formerly Church of St. Mary the Virgin and St. Cyprian)", "POSTAL": null, "ADDRESS": "40 Westmoreland Avenue", "TYPE": "Non-religious", "Latitude": 43.661936, "Longitude": -79.431225 }, "geometry": { "type": "Point", "coordinates": [ -79.431225, 43.661936 ] } },
{ "type": "Feature", "properties": { "ID": 9, "NAME": "4160 Dundas Street West (formerly Lambton Mills Methodist Church)", "POSTAL": null, "ADDRESS": "4160 Dundas Street West", "TYPE": "Non-religious", "Latitude": 43.661511, "Longitude": -79.509118 }, "geometry": { "type": "Point", "coordinates": [ -79.509118, 43.661511 ] } },
{ "type": "Feature", "properties": { "ID": 10, "NAME": "Annunciation of the Blessed Virgin Mary Roman Catholic Church", "POSTAL": null, "ADDRESS": "3 Combermere Drive", "TYPE": "Roman Catholic", "Latitude": 43.755516, "Longitude": -79.315131 }, "geometry": { "type": "Point", "coordinates": [ -79.315131, 43.755516 ] } },
{ "type": "Feature", "properties": { "ID": 11, "NAME": "506 College Street (formerly Portuguese Seventh-Day Adventist Church and College Street Baptist Church)", "POSTAL": null, "ADDRESS": "506 College Street", "TYPE": "Non-religious", "Latitude": 43.660712, "Longitude": -79.386446 }, "geometry": { "type": "Point", "coordinates": [ -79.386446, 43.660712 ] } },
{ "type": "Feature", "properties": { "ID": 12, "NAME": "Maurice Cody Memorial Hall (Old St. Paul's Anglican Church)", "POSTAL": null, "ADDRESS": "227 Bloor Street East", "TYPE": "Anglican", "Latitude": 43.671148, "Longitude": -79.381596 }, "geometry": { "type": "Point", "coordinates": [ -79.381596, 43.671148 ] } },
{ "type": "Feature", "properties": { "ID": 13, "NAME": "Living Hope Presbyterian Church", "POSTAL": null, "ADDRESS": "118 Ninth Street", "TYPE": "Presbyterian", "Latitude": 43.599429, "Longitude": -79.507544 }, "geometry": { "type": "Point", "coordinates": [ -79.507544, 43.599429 ] } },
{ "type": "Feature", "properties": { "ID": 14, "NAME": "Anshei Minsk", "POSTAL": null, "ADDRESS": "10 St. Andrew Street", "TYPE": "Judaism - Orthodox", "Latitude": 43.654494, "Longitude": -79.399315 }, "geometry": { "type": "Point", "coordinates": [ -79.399315, 43.654494 ] } },
{ "type": "Feature", "properties": { "ID": 15, "NAME": "Agricola Evangelical Lutheran Church", "POSTAL": null, "ADDRESS": "25 Old York Mills Road", "TYPE": "Lutheran", "Latitude": 43.743541, "Longitude": -79.404462 }, "geometry": { "type": "Point", "coordinates": [ -79.404462, 43.743541 ] } },
{ "type": "Feature", "properties": { "ID": 16, "NAME": "Church of Jesus Christ of Latter-day Saints", "POSTAL": null, "ADDRESS": "395 McCowan Road", "TYPE": "Church of Jesus Christ of Latter-day Saints (Mormon)", "Latitude": 43.741288, "Longitude": -79.238639 }, "geometry": { "type": "Point", "coordinates": [ -79.238639, 43.741288 ] } },
{ "type": "Feature", "properties": { "ID": 17, "NAME": "Living Hope Baptist Church", "POSTAL": null, "ADDRESS": "66 10th Street", "TYPE": "Baptist", "Latitude": 43.786748, "Longitude": -79.205588 }, "geometry": { "type": "Point", "coordinates": [ -79.205588, 43.786748 ] } },
{ "type": "Feature", "properties": { "ID": 18, "NAME": "Medhan El Alem – Eritrean Orthodox Tev Ahdo Church", "POSTAL": null, "ADDRESS": "1 Ramsden Road", "TYPE": "Other", "Latitude": 43.696748, "Longitude": -79.450926 }, "geometry": { "type": "Point", "coordinates": [ -79.450926, 43.696748 ] } },
{ "type": "Feature", "properties": { "ID": 19, "NAME": "Melville Presbyterian Church", "POSTAL": null, "ADDRESS": "70 Old Kingston Road", "TYPE": "Presbyterian", "Latitude": 43.776791, "Longitude": -79.181174 }, "geometry": { "type": "Point", "coordinates": [ -79.181174, 43.776791 ] } },
{ "type": "Feature", "properties": { "ID": 20, "NAME": "Alderwood United Church", "POSTAL": null, "ADDRESS": "44 Delma Drive", "TYPE": "United Church", "Latitude": 43.60333, "Longitude": -79.551144 }, "geometry": { "type": "Point", "coordinates": [ -79.551144, 43.60333 ] } },
{ "type": "Feature", "properties": { "ID": 21, "NAME": "Members in Christ Assembly Church", "POSTAL": null, "ADDRESS": "764 Ellesmere Road", "TYPE": "Members of Christ Assembly", "Latitude": 43.764372, "Longitude": -79.287276 }, "geometry": { "type": "Point", "coordinates": [ -79.287276, 43.764372 ] } },
{ "type": "Feature", "properties": { "ID": 22, "NAME": "Metamorphosis Greek Orthodox Church", "POSTAL": null, "ADDRESS": "40 Donlands Avenue", "TYPE": "Greek Orthodox", "Latitude": 43.68132, "Longitude": -79.338076 }, "geometry": { "type": "Point", "coordinates": [ -79.338076, 43.68132 ] } },
{ "type": "Feature", "properties": { "ID": 23, "NAME": "Metro Church of God", "POSTAL": null, "ADDRESS": "236 Nairn Avenue", "TYPE": "Church of God", "Latitude": 43.683728, "Longitude": -79.451732 }, "geometry": { "type": "Point", "coordinates": [ -79.451732, 43.683728 ] } },
{ "type": "Feature", "properties": { "ID": 24, "NAME": "Metropolitan Community Church\/Simpson Avenue United Church", "POSTAL": null, "ADDRESS": "115 Simpson Avenue", "TYPE": "Metropolitan Community Church (MCC)", "Latitude": 43.667097, "Longitude": -79.347744 }, "geometry": { "type": "Point", "coordinates": [ -79.347744, 43.667097 ] } },
{ "type": "Feature", "properties": { "ID": 25, "NAME": "Metropolitan United Church", "POSTAL": null, "ADDRESS": "56 Queen Street East", "TYPE": "United Church", "Latitude": 43.653916, "Longitude": -79.376738 }, "geometry": { "type": "Point", "coordinates": [ -79.376738, 43.653916 ] } },
{ "type": "Feature", "properties": { "ID": 26, "NAME": "Midland Park Baptist Church", "POSTAL": null, "ADDRESS": "5 Treewood Street", "TYPE": "Baptist", "Latitude": 43.753871, "Longitude": -79.263589 }, "geometry": { "type": "Point", "coordinates": [ -79.263589, 43.753871 ] } },
{ "type": "Feature", "properties": { "ID": 27, "NAME": "Macpherson Church Lofts (former Century Baptist Church)", "POSTAL": null, "ADDRESS": "12 Macpherson Avenue", "TYPE": "Non-religious", "Latitude": 43.679182, "Longitude": -79.391453 }, "geometry": { "type": "Point", "coordinates": [ -79.391453, 43.679182 ] } },
{ "type": "Feature", "properties": { "ID": 28, "NAME": "Church of the Atonement", "POSTAL": null, "ADDRESS": "256 Sheldon Avenue", "TYPE": "Anglican", "Latitude": 43.608521, "Longitude": -79.546514 }, "geometry": { "type": "Point", "coordinates": [ -79.546514, 43.608521 ] } },
{ "type": "Feature", "properties": { "ID": 29, "NAME": "Church of the Ascension", "POSTAL": null, "ADDRESS": "33 Overland Drive", "TYPE": "Anglican", "Latitude": 43.732251, "Longitude": -79.347596 }, "geometry": { "type": "Point", "coordinates": [ -79.347596, 43.732251 ] } },
{ "type": "Feature", "properties": { "ID": 30, "NAME": "Mimico Baptist Church", "POSTAL": null, "ADDRESS": "80 Hillside Avenue", "TYPE": "Baptist", "Latitude": 43.610669, "Longitude": -79.4946 }, "geometry": { "type": "Point", "coordinates": [ -79.4946, 43.610669 ] } },
{ "type": "Feature", "properties": { "ID": 31, "NAME": "Mimico Presbyterian Church", "POSTAL": null, "ADDRESS": "119 Mimico Avenue", "TYPE": "Presbyterian", "Latitude": 43.612215, "Longitude": -79.496131 }, "geometry": { "type": "Point", "coordinates": [ -79.496131, 43.612215 ] } },
{ "type": "Feature", "properties": { "ID": 32, "NAME": "All Saints Anglican Church", "POSTAL": null, "ADDRESS": "223 Sherbourne Street", "TYPE": "Anglican", "Latitude": 43.658306, "Longitude": -79.370998 }, "geometry": { "type": "Point", "coordinates": [ -79.370998, 43.658306 ] } },
{ "type": "Feature", "properties": { "ID": 33, "NAME": "All Saints Greek Orthodox Church", "POSTAL": null, "ADDRESS": "3125 Bayview Avenue", "TYPE": "Greek Orthodox", "Latitude": 43.781558, "Longitude": -79.390813 }, "geometry": { "type": "Point", "coordinates": [ -79.390813, 43.781558 ] } },
{ "type": "Feature", "properties": { "ID": 34, "NAME": "All Saints Kingsway Anglican Church", "POSTAL": null, "ADDRESS": "2850 Bloor Street West", "TYPE": "Anglican", "Latitude": 43.649066, "Longitude": -79.505055 }, "geometry": { "type": "Point", "coordinates": [ -79.505055, 43.649066 ] } },
{ "type": "Feature", "properties": { "ID": 35, "NAME": "All Saints Roman Catholic Church", "POSTAL": null, "ADDRESS": "1415 Royal York Road", "TYPE": "Roman Catholic", "Latitude": 43.684656, "Longitude": -79.527124 }, "geometry": { "type": "Point", "coordinates": [ -79.527124, 43.684656 ] } },
{ "type": "Feature", "properties": { "ID": 36, "NAME": "Bathurst Street Theatre (former Methodist church)", "POSTAL": null, "ADDRESS": "730 and 736 Bathurst Street", "TYPE": "Non-religious", "Latitude": 43.663583, "Longitude": -79.41084 }, "geometry": { "type": "Point", "coordinates": [ -79.41084, 43.663583 ] } },
{ "type": "Feature", "properties": { "ID": 37, "NAME": "Armadale Free Methodist Church", "POSTAL": null, "ADDRESS": "400 Passmore Avenue", "TYPE": "Free Methodist", "Latitude": 43.828985, "Longitude": -79.258082 }, "geometry": { "type": "Point", "coordinates": [ -79.258082, 43.828985 ] } },
{ "type": "Feature", "properties": { "ID": 38, "NAME": "Morningside-High Park Presbyterian Church", "POSTAL": null, "ADDRESS": "4 Morningside Avenue", "TYPE": "Presbyterian", "Latitude": 43.646637, "Longitude": -79.473058 }, "geometry": { "type": "Point", "coordinates": [ -79.473058, 43.646637 ] } },
{ "type": "Feature", "properties": { "ID": 39, "NAME": "Morningstar Christian Fellowship", "POSTAL": null, "ADDRESS": "7601 Sheppard Avenue East", "TYPE": "Baptist", "Latitude": 43.801086, "Longitude": -79.201493 }, "geometry": { "type": "Point", "coordinates": [ -79.201493, 43.801086 ] } },
{ "type": "Feature", "properties": { "ID": 40, "NAME": "Mother of God of Prousa Greek Orthodox Church", "POSTAL": null, "ADDRESS": "461 Richmond Street East", "TYPE": "Greek Orthodox", "Latitude": 43.653954, "Longitude": -79.365858 }, "geometry": { "type": "Point", "coordinates": [ -79.365858, 43.653954 ] } },
{ "type": "Feature", "properties": { "ID": 41, "NAME": "Armenian Brotherhood Bible Chapel", "POSTAL": null, "ADDRESS": "2755 Victoria Park Avenue", "TYPE": "Other", "Latitude": 43.779711, "Longitude": -79.324617 }, "geometry": { "type": "Point", "coordinates": [ -79.324617, 43.779711 ] } },
{ "type": "Feature", "properties": { "ID": 42, "NAME": "Mount Dennis Baptist Church", "POSTAL": null, "ADDRESS": "1272 Weston Road", "TYPE": "Baptist", "Latitude": 43.688586, "Longitude": -79.494687 }, "geometry": { "type": "Point", "coordinates": [ -79.494687, 43.688586 ] } },
{ "type": "Feature", "properties": { "ID": 43, "NAME": "Mount Dennis United Church", "POSTAL": null, "ADDRESS": "71 Guestville Avenue", "TYPE": "United Church", "Latitude": 43.683973, "Longitude": -79.488888 }, "geometry": { "type": "Point", "coordinates": [ -79.488888, 43.683973 ] } },
{ "type": "Feature", "properties": { "ID": 44, "NAME": "Mount Pleasant Road Baptist Church", "POSTAL": null, "ADDRESS": "527 Mount Pleasant Road", "TYPE": "Baptist", "Latitude": 43.702356, "Longitude": -79.387529 }, "geometry": { "type": "Point", "coordinates": [ -79.387529, 43.702356 ] } },
{ "type": "Feature", "properties": { "ID": 45, "NAME": "Armour Heights Presbyterian Church", "POSTAL": null, "ADDRESS": "105 Wilson Avenue", "TYPE": "Presbyterian", "Latitude": 43.740644, "Longitude": -79.41654 }, "geometry": { "type": "Point", "coordinates": [ -79.41654, 43.740644 ] } },
{ "type": "Feature", "properties": { "ID": 46, "NAME": "Asbury and West United Church", "POSTAL": null, "ADDRESS": "3180 Bathurst Street", "TYPE": "United Church", "Latitude": 43.722692, "Longitude": -79.431371 }, "geometry": { "type": "Point", "coordinates": [ -79.431371, 43.722692 ] } },
{ "type": "Feature", "properties": { "ID": 47, "NAME": "Former Toronto Brock Avenue Gospel Hall", "POSTAL": null, "ADDRESS": "311 Brock Avenue", "TYPE": "Evangelical", "Latitude": 43.65049, "Longitude": -79.435843 }, "geometry": { "type": "Point", "coordinates": [ -79.435843, 43.65049 ] } },
{ "type": "Feature", "properties": { "ID": 48, "NAME": "Boon Avenue Baptist Church", "POSTAL": null, "ADDRESS": "9 Boon Avenue", "TYPE": "Baptist", "Latitude": 43.677836, "Longitude": -79.446149 }, "geometry": { "type": "Point", "coordinates": [ -79.446149, 43.677836 ] } },
{ "type": "Feature", "properties": { "ID": 49, "NAME": "Beach Hebrew Institute (The Beach Synagogue)", "POSTAL": null, "ADDRESS": "109 Kenilworth Avenue", "TYPE": "Judaism - Conservative", "Latitude": 43.669317, "Longitude": -79.301463 }, "geometry": { "type": "Point", "coordinates": [ -79.301463, 43.669317 ] } },
{ "type": "Feature", "properties": { "ID": 50, "NAME": "Nativity of Our Lord Roman Catholic Church", "POSTAL": null, "ADDRESS": "480 Rathburn Road", "TYPE": "Roman Catholic", "Latitude": 43.652715, "Longitude": -79.576411 }, "geometry": { "type": "Point", "coordinates": [ -79.576411, 43.652715 ] } },
{ "type": "Feature", "properties": { "ID": 51, "NAME": "Beach United Church", "POSTAL": null, "ADDRESS": "140 Wineva Avenue", "TYPE": "United Church", "Latitude": 43.671598, "Longitude": -79.296377 }, "geometry": { "type": "Point", "coordinates": [ -79.296377, 43.671598 ] } },
{ "type": "Feature", "properties": { "ID": 52, "NAME": "Nativity of the Mother of God Ukrainian Catholic Church", "POSTAL": null, "ADDRESS": "257 Shaw Street", "TYPE": "Ukrainian Catholic", "Latitude": 43.649009, "Longitude": -79.417851 }, "geometry": { "type": "Point", "coordinates": [ -79.417851, 43.649009 ] } },
{ "type": "Feature", "properties": { "ID": 53, "NAME": "Neighbourhood Unitarian Universalist Church", "POSTAL": null, "ADDRESS": "79 Hiawatha Road", "TYPE": "Canadian Unitarian Council", "Latitude": 43.670858, "Longitude": -79.322228 }, "geometry": { "type": "Point", "coordinates": [ -79.322228, 43.670858 ] } },
{ "type": "Feature", "properties": { "ID": 54, "NAME": "Baha'i Centre", "POSTAL": null, "ADDRESS": "288 Bloor Street West", "TYPE": "Baha'i", "Latitude": 43.667401, "Longitude": -79.401295 }, "geometry": { "type": "Point", "coordinates": [ -79.401295, 43.667401 ] } },
{ "type": "Feature", "properties": { "ID": 55, "NAME": "Christ Church Deer Park", "POSTAL": null, "ADDRESS": "1570 Yonge Street", "TYPE": "Anglican", "Latitude": 43.690256, "Longitude": -79.395672 }, "geometry": { "type": "Point", "coordinates": [ -79.395672, 43.690256 ] } },
{ "type": "Feature", "properties": { "ID": 56, "NAME": "Beaches Presbyterian Church", "POSTAL": null, "ADDRESS": "65 Glen Manor Drive", "TYPE": "Presbyterian", "Latitude": 43.671115, "Longitude": -79.292096 }, "geometry": { "type": "Point", "coordinates": [ -79.292096, 43.671115 ] } },
{ "type": "Feature", "properties": { "ID": 57, "NAME": "Church of St. Timothy", "POSTAL": null, "ADDRESS": "100 Old Orchard Grove", "TYPE": "Anglican", "Latitude": 43.73411, "Longitude": -79.409085 }, "geometry": { "type": "Point", "coordinates": [ -79.409085, 43.73411 ] } },
{ "type": "Feature", "properties": { "ID": 58, "NAME": "Belarusan Autocephalous Orthodox Church", "POSTAL": null, "ADDRESS": "524 St. Clarens Avenue", "TYPE": "Other", "Latitude": 43.660966, "Longitude": -79.442861 }, "geometry": { "type": "Point", "coordinates": [ -79.442861, 43.660966 ] } },
{ "type": "Feature", "properties": { "ID": 59, "NAME": "New Dawn Moravian Church", "POSTAL": null, "ADDRESS": "7 Glenora Avenue", "TYPE": "Moravian Church", "Latitude": 43.691881, "Longitude": -79.438578 }, "geometry": { "type": "Point", "coordinates": [ -79.438578, 43.691881 ] } },
{ "type": "Feature", "properties": { "ID": 60, "NAME": "New Gate Presbyterian Church", "POSTAL": null, "ADDRESS": "240 The Westway", "TYPE": "Presbyterian", "Latitude": 43.687384, "Longitude": -79.54974 }, "geometry": { "type": "Point", "coordinates": [ -79.54974, 43.687384 ] } },
{ "type": "Feature", "properties": { "ID": 61, "NAME": "New Hope Community Church", "POSTAL": null, "ADDRESS": "48 Bloem Avenue", "TYPE": "United Brethren Church in Canada", "Latitude": 43.685999, "Longitude": -79.448457 }, "geometry": { "type": "Point", "coordinates": [ -79.448457, 43.685999 ] } },
{ "type": "Feature", "properties": { "ID": 62, "NAME": "New Jerusalem Spanish Church", "POSTAL": null, "ADDRESS": "312 Oakwood Avenue", "TYPE": "Pentecostal", "Latitude": 43.685318, "Longitude": -79.438129 }, "geometry": { "type": "Point", "coordinates": [ -79.438129, 43.685318 ] } },
{ "type": "Feature", "properties": { "ID": 63, "NAME": "New Life Christian Church", "POSTAL": null, "ADDRESS": "480 Huntingwood Drive", "TYPE": "Brethren in Christ Church", "Latitude": 43.78461, "Longitude": -79.314734 }, "geometry": { "type": "Point", "coordinates": [ -79.314734, 43.78461 ] } },
{ "type": "Feature", "properties": { "ID": 64, "NAME": "Church of St. Stephen", "POSTAL": null, "ADDRESS": "2259 Jane Street", "TYPE": "Anglican", "Latitude": 43.726731, "Longitude": -79.50956 }, "geometry": { "type": "Point", "coordinates": [ -79.50956, 43.726731 ] } },
{ "type": "Feature", "properties": { "ID": 65, "NAME": "New St. Margaret's-in-the-Pines", "POSTAL": null, "ADDRESS": "4130 Lawrence Avenue East", "TYPE": "Anglican", "Latitude": 43.768598, "Longitude": -79.192784 }, "geometry": { "type": "Point", "coordinates": [ -79.192784, 43.768598 ] } },
{ "type": "Feature", "properties": { "ID": 66, "NAME": "Church of St. Mary Magdalene", "POSTAL": null, "ADDRESS": "469 Manning Avenue", "TYPE": "Anglican", "Latitude": 43.659028, "Longitude": -79.413772 }, "geometry": { "type": "Point", "coordinates": [ -79.413772, 43.659028 ] } },
{ "type": "Feature", "properties": { "ID": 67, "NAME": "Bethel Seventh-Day Adventist Church", "POSTAL": null, "ADDRESS": "511 Homer Avenue", "TYPE": "Unknown", "Latitude": 43.601221, "Longitude": -79.546234 }, "geometry": { "type": "Point", "coordinates": [ -79.546234, 43.601221 ] } },
{ "type": "Feature", "properties": { "ID": 68, "NAME": "Newtonbrook United Church", "POSTAL": null, "ADDRESS": "53 Cummer Avenue", "TYPE": "United Church", "Latitude": 43.787074, "Longitude": -79.415032 }, "geometry": { "type": "Point", "coordinates": [ -79.415032, 43.787074 ] } },
{ "type": "Feature", "properties": { "ID": 69, "NAME": "St. Dunstan's Roman Catholic Church", "POSTAL": null, "ADDRESS": "3150 Danforth Avenue", "TYPE": "Roman Catholic", "Latitude": 43.692253, "Longitude": -79.285238 }, "geometry": { "type": "Point", "coordinates": [ -79.285238, 43.692253 ] } },
{ "type": "Feature", "properties": { "ID": 70, "NAME": "Beth David B'nai Israel Beth Am", "POSTAL": null, "ADDRESS": "55 Yeomans Road", "TYPE": "Judaism - Conservative", "Latitude": 43.748897, "Longitude": -79.440479 }, "geometry": { "type": "Point", "coordinates": [ -79.440479, 43.748897 ] } },
{ "type": "Feature", "properties": { "ID": 71, "NAME": "Beth Emeth Bais Yehuda", "POSTAL": null, "ADDRESS": "100 Elder Street", "TYPE": "Judaism - Conservative", "Latitude": 43.760555, "Longitude": -79.454303 }, "geometry": { "type": "Point", "coordinates": [ -79.454303, 43.760555 ] } },
{ "type": "Feature", "properties": { "ID": 72, "NAME": "Beth Jacob Synagogue", "POSTAL": null, "ADDRESS": "147 Overbrook Place", "TYPE": "Judaism - Orthodox", "Latitude": 43.762441, "Longitude": -79.457838 }, "geometry": { "type": "Point", "coordinates": [ -79.457838, 43.762441 ] } },
{ "type": "Feature", "properties": { "ID": 73, "NAME": "Beth Joseph Anshei New York Congregation", "POSTAL": null, "ADDRESS": "44 Edinburgh Drive", "TYPE": "Judaism - Orthodox", "Latitude": 43.742046, "Longitude": -79.434742 }, "geometry": { "type": "Point", "coordinates": [ -79.434742, 43.742046 ] } },
{ "type": "Feature", "properties": { "ID": 74, "NAME": "North Runnymede United Church", "POSTAL": null, "ADDRESS": "33 Pritchard Avenue", "TYPE": "United Church", "Latitude": 43.670223, "Longitude": -79.489083 }, "geometry": { "type": "Point", "coordinates": [ -79.489083, 43.670223 ] } },
{ "type": "Feature", "properties": { "ID": 75, "NAME": "Beth Lida Forest Hill Synagogue", "POSTAL": null, "ADDRESS": "22 Gilgorm Road", "TYPE": "Judaism - Orthodox", "Latitude": 43.703957, "Longitude": -79.417684 }, "geometry": { "type": "Point", "coordinates": [ -79.417684, 43.703957 ] } },
{ "type": "Feature", "properties": { "ID": 76, "NAME": "North York Chinese Baptist Church", "POSTAL": null, "ADDRESS": "675 Sheppard Avenue East", "TYPE": "Baptist", "Latitude": 43.768436, "Longitude": -79.378827 }, "geometry": { "type": "Point", "coordinates": [ -79.378827, 43.768436 ] } },
{ "type": "Feature", "properties": { "ID": 77, "NAME": "Northlea United Church", "POSTAL": null, "ADDRESS": "125 Brentcliffe Road", "TYPE": "United Church", "Latitude": 43.71734, "Longitude": -79.363007 }, "geometry": { "type": "Point", "coordinates": [ -79.363007, 43.71734 ] } },
{ "type": "Feature", "properties": { "ID": 78, "NAME": "Olivet Baptist Church", "POSTAL": null, "ADDRESS": "36 Margueretta Street", "TYPE": "Baptist", "Latitude": 43.651566, "Longitude": -79.437566 }, "geometry": { "type": "Point", "coordinates": [ -79.437566, 43.651566 ] } },
{ "type": "Feature", "properties": { "ID": 79, "NAME": "Beth Shalom", "POSTAL": null, "ADDRESS": "1445 Eglinton Avenue West", "TYPE": "Judaism - Conservative", "Latitude": 43.698115, "Longitude": -79.437731 }, "geometry": { "type": "Point", "coordinates": [ -79.437731, 43.698115 ] } },
{ "type": "Feature", "properties": { "ID": 80, "NAME": "Beth Tikvah Synagogue", "POSTAL": null, "ADDRESS": "3080 Bayview Avenue", "TYPE": "Judaism - Conservative", "Latitude": 43.778715, "Longitude": -79.392045 }, "geometry": { "type": "Point", "coordinates": [ -79.392045, 43.778715 ] } },
{ "type": "Feature", "properties": { "ID": 81, "NAME": "Onnuri Korean United Church", "POSTAL": null, "ADDRESS": "63 Dunblaine Avenue", "TYPE": "United Church", "Latitude": 43.735267, "Longitude": -79.422171 }, "geometry": { "type": "Point", "coordinates": [ -79.422171, 43.735267 ] } },
{ "type": "Feature", "properties": { "ID": 82, "NAME": "Beth Torah Congregation", "POSTAL": null, "ADDRESS": "47 Glenbrook Avenue", "TYPE": "Judaism - Conservative", "Latitude": 43.709408, "Longitude": -79.452018 }, "geometry": { "type": "Point", "coordinates": [ -79.452018, 43.709408 ] } },
{ "type": "Feature", "properties": { "ID": 83, "NAME": "Beth Tzedec", "POSTAL": null, "ADDRESS": "1700 Bathurst Street", "TYPE": "Judaism - Conservative", "Latitude": 43.695627, "Longitude": -79.424146 }, "geometry": { "type": "Point", "coordinates": [ -79.424146, 43.695627 ] } },
{ "type": "Feature", "properties": { "ID": 84, "NAME": "St. Dustan of Canterbury Anglican Church", "POSTAL": null, "ADDRESS": "56 Lawson Road", "TYPE": "Anglican", "Latitude": 43.784167, "Longitude": -79.164887 }, "geometry": { "type": "Point", "coordinates": [ -79.164887, 43.784167 ] } },
{ "type": "Feature", "properties": { "ID": 85, "NAME": "Oriole-York Mills United Church", "POSTAL": null, "ADDRESS": "2609 Bayview Avenue", "TYPE": "United Church", "Latitude": 43.751672, "Longitude": -79.384282 }, "geometry": { "type": "Point", "coordinates": [ -79.384282, 43.751672 ] } },
{ "type": "Feature", "properties": { "ID": 86, "NAME": "Bethany Chapel", "POSTAL": null, "ADDRESS": "22 McAdam Avenue", "TYPE": "Non-denominational", "Latitude": 43.722777, "Longitude": -79.4576 }, "geometry": { "type": "Point", "coordinates": [ -79.4576, 43.722777 ] } },
{ "type": "Feature", "properties": { "ID": 87, "NAME": "Bridal Fashion Fraire", "POSTAL": null, "ADDRESS": "161 Spadina Avenue", "TYPE": "Non-religious", "Latitude": 43.648337, "Longitude": -79.395686 }, "geometry": { "type": "Point", "coordinates": [ -79.395686, 43.648337 ] } },
{ "type": "Feature", "properties": { "ID": 88, "NAME": "Bridlewood Presbyterian Church", "POSTAL": null, "ADDRESS": "2501 Warden Avenue", "TYPE": "Presbyterian", "Latitude": 43.790317, "Longitude": -79.312506 }, "geometry": { "type": "Point", "coordinates": [ -79.312506, 43.790317 ] } },
{ "type": "Feature", "properties": { "ID": 89, "NAME": "British Methodist Episcopal Christ Church St. James", "POSTAL": null, "ADDRESS": "1828 Eglinton Avenue West", "TYPE": "British Methodist Episcopal Church", "Latitude": 43.696085, "Longitude": -79.450465 }, "geometry": { "type": "Point", "coordinates": [ -79.450465, 43.696085 ] } },
{ "type": "Feature", "properties": { "ID": 90, "NAME": "Our Lady Help of Christians Roman Catholic Church", "POSTAL": null, "ADDRESS": "611 Manning Avenue", "TYPE": "Roman Catholic", "Latitude": 43.662422, "Longitude": -79.414983 }, "geometry": { "type": "Point", "coordinates": [ -79.414983, 43.662422 ] } },
{ "type": "Feature", "properties": { "ID": 91, "NAME": "Our Lady of Fatima Roman Catholic Church", "POSTAL": null, "ADDRESS": "3170 St. Clair Avenue East", "TYPE": "Roman Catholic", "Latitude": 43.709684, "Longitude": -79.293383 }, "geometry": { "type": "Point", "coordinates": [ -79.293383, 43.709684 ] } },
{ "type": "Feature", "properties": { "ID": 92, "NAME": "Broadview Gospel Hall", "POSTAL": null, "ADDRESS": "194 Broadview Avenue", "TYPE": "Non-denominational", "Latitude": 43.661247, "Longitude": -79.351154 }, "geometry": { "type": "Point", "coordinates": [ -79.351154, 43.661247 ] } },
{ "type": "Feature", "properties": { "ID": 93, "NAME": "Dentonia Park United Church", "POSTAL": null, "ADDRESS": "107 Dawes Street", "TYPE": "United Church", "Latitude": 43.692067, "Longitude": -79.296762 }, "geometry": { "type": "Point", "coordinates": [ -79.296762, 43.692067 ] } },
{ "type": "Feature", "properties": { "ID": 94, "NAME": "Our Lady of Lebanon", "POSTAL": null, "ADDRESS": "1515 Queen Street West", "TYPE": "Roman Catholic", "Latitude": 43.639515, "Longitude": -79.44135 }, "geometry": { "type": "Point", "coordinates": [ -79.44135, 43.639515 ] } },
{ "type": "Feature", "properties": { "ID": 95, "NAME": "Our Lady of Lourdes Roman Catholic Church", "POSTAL": null, "ADDRESS": "520 Sherbourne Street", "TYPE": "Roman Catholic", "Latitude": 43.66841, "Longitude": -79.375737 }, "geometry": { "type": "Point", "coordinates": [ -79.375737, 43.66841 ] } },
{ "type": "Feature", "properties": { "ID": 96, "NAME": "Our Lady of Mount Carmel", "POSTAL": null, "ADDRESS": "196 St. Patrick Street", "TYPE": "Roman Catholic", "Latitude": 43.655109, "Longitude": -79.390968 }, "geometry": { "type": "Point", "coordinates": [ -79.390968, 43.655109 ] } },
{ "type": "Feature", "properties": { "ID": 97, "NAME": "Our Lady of Peace Roman Catholic Church", "POSTAL": null, "ADDRESS": "3914 Bloor Street West", "TYPE": "Roman Catholic", "Latitude": 43.639675, "Longitude": -79.544897 }, "geometry": { "type": "Point", "coordinates": [ -79.544897, 43.639675 ] } },
{ "type": "Feature", "properties": { "ID": 98, "NAME": "Our Lady of Perpetual Help Church", "POSTAL": null, "ADDRESS": "208 St. Clair Avenue East", "TYPE": "Roman Catholic", "Latitude": 43.690258, "Longitude": -79.385088 }, "geometry": { "type": "Point", "coordinates": [ -79.385088, 43.690258 ] } },
{ "type": "Feature", "properties": { "ID": 99, "NAME": "Our Lady of Sorrows Roman Catholic Church", "POSTAL": null, "ADDRESS": "3055 Bloor Street West", "TYPE": "Roman Catholic", "Latitude": 43.646695, "Longitude": -79.512896 }, "geometry": { "type": "Point", "coordinates": [ -79.512896, 43.646695 ] } },
{ "type": "Feature", "properties": { "ID": 100, "NAME": "Dewi Sant Welsh United Church", "POSTAL": null, "ADDRESS": "33 Melrose Avenue", "TYPE": "United Church", "Latitude": 43.732331, "Longitude": -79.405195 }, "geometry": { "type": "Point", "coordinates": [ -79.405195, 43.732331 ] } },
{ "type": "Feature", "properties": { "ID": 101, "NAME": "Our Lady of the Assumption Roman Catholic Church", "POSTAL": null, "ADDRESS": "2565 Bathurst Street", "TYPE": "Roman Catholic", "Latitude": 43.706691, "Longitude": -79.426464 }, "geometry": { "type": "Point", "coordinates": [ -79.426464, 43.706691 ] } },
{ "type": "Feature", "properties": { "ID": 102, "NAME": "Our Lady of the Miraculous Medal Roman Catholic Church", "POSTAL": null, "ADDRESS": "739 Brown's Line", "TYPE": "Roman Catholic", "Latitude": 43.607897, "Longitude": -79.547745 }, "geometry": { "type": "Point", "coordinates": [ -79.547745, 43.607897 ] } },
{ "type": "Feature", "properties": { "ID": 103, "NAME": "Our Lady of Victory Roman Catholic Church", "POSTAL": null, "ADDRESS": "117 Guestville Avenue", "TYPE": "Roman Catholic", "Latitude": 43.68562, "Longitude": -79.489805 }, "geometry": { "type": "Point", "coordinates": [ -79.489805, 43.68562 ] } },
{ "type": "Feature", "properties": { "ID": 104, "NAME": "Brooke Avenue Baptist Church", "POSTAL": null, "ADDRESS": "156 Falkirk Avenue", "TYPE": "Baptist", "Latitude": 43.730561, "Longitude": -79.428477 }, "geometry": { "type": "Point", "coordinates": [ -79.428477, 43.730561 ] } },
{ "type": "Feature", "properties": { "ID": 105, "NAME": "Park Lawn Baptist Church", "POSTAL": null, "ADDRESS": "276 Park Lawn Road", "TYPE": "Baptist", "Latitude": 43.63389, "Longitude": -79.492739 }, "geometry": { "type": "Point", "coordinates": [ -79.492739, 43.63389 ] } },
{ "type": "Feature", "properties": { "ID": 106, "NAME": "Park Lofts (formerly Czechoslovak Baptist Church and Annette Street Baptist Church)", "POSTAL": null, "ADDRESS": "200 Annette Street", "TYPE": "Non-religious", "Latitude": 43.663166, "Longitude": -79.468629 }, "geometry": { "type": "Point", "coordinates": [ -79.468629, 43.663166 ] } },
{ "type": "Feature", "properties": { "ID": 107, "NAME": "Epiphany Anglican Church", "POSTAL": null, "ADDRESS": "700 Kennedy Road", "TYPE": "Anglican", "Latitude": 43.728051, "Longitude": -79.26683 }, "geometry": { "type": "Point", "coordinates": [ -79.26683, 43.728051 ] } },
{ "type": "Feature", "properties": { "ID": 108, "NAME": "Parkdale United Church", "POSTAL": null, "ADDRESS": "171 Dunn Avenue", "TYPE": "United Church", "Latitude": 43.63744, "Longitude": -79.432901 }, "geometry": { "type": "Point", "coordinates": [ -79.432901, 43.63744 ] } },
{ "type": "Feature", "properties": { "ID": 109, "NAME": "Parkway Bible Church", "POSTAL": null, "ADDRESS": "77 Ivordale Cresent", "TYPE": "Associated Gospel", "Latitude": 43.755907, "Longitude": -79.313697 }, "geometry": { "type": "Point", "coordinates": [ -79.313697, 43.755907 ] } },
{ "type": "Feature", "properties": { "ID": 110, "NAME": "Parkwoods United Church", "POSTAL": null, "ADDRESS": "85 Parkwoods Village Drive", "TYPE": "United Church", "Latitude": 43.761383, "Longitude": -79.323627 }, "geometry": { "type": "Point", "coordinates": [ -79.323627, 43.761383 ] } },
{ "type": "Feature", "properties": { "ID": 111, "NAME": "Patterson Presbyterian Church", "POSTAL": null, "ADDRESS": "109 Harvie Avenue", "TYPE": "Presbyterian", "Latitude": 43.680206, "Longitude": -79.451183 }, "geometry": { "type": "Point", "coordinates": [ -79.451183, 43.680206 ] } },
{ "type": "Feature", "properties": { "ID": 112, "NAME": "Christ Church Anglican", "POSTAL": null, "ADDRESS": "329 Royal York Road", "TYPE": "Anglican", "Latitude": 43.616995, "Longitude": -79.497917 }, "geometry": { "type": "Point", "coordinates": [ -79.497917, 43.616995 ] } },
{ "type": "Feature", "properties": { "ID": 113, "NAME": "Holy Cross Roman Catholic Church", "POSTAL": null, "ADDRESS": "291 Cosburn Avenue", "TYPE": "Roman Catholic", "Latitude": 43.691138, "Longitude": -79.341674 }, "geometry": { "type": "Point", "coordinates": [ -79.341674, 43.691138 ] } },
{ "type": "Feature", "properties": { "ID": 114, "NAME": "Don Mills United Church", "POSTAL": null, "ADDRESS": "126 O'Connor Drive", "TYPE": "United Church", "Latitude": 43.693371, "Longitude": -79.351107 }, "geometry": { "type": "Point", "coordinates": [ -79.351107, 43.693371 ] } },
{ "type": "Feature", "properties": { "ID": 115, "NAME": "Pentecostal Missionary Church of Christ", "POSTAL": null, "ADDRESS": "2 Delbert Drive", "TYPE": "Pentecostal", "Latitude": 43.763799, "Longitude": -79.286316 }, "geometry": { "type": "Point", "coordinates": [ -79.286316, 43.763799 ] } },
{ "type": "Feature", "properties": { "ID": 116, "NAME": "Bonar-Parkdale Presbyterian Church", "POSTAL": null, "ADDRESS": "250 Dunn Avenue", "TYPE": "Presbyterian", "Latitude": 43.640117, "Longitude": -79.434503 }, "geometry": { "type": "Point", "coordinates": [ -79.434503, 43.640117 ] } },
{ "type": "Feature", "properties": { "ID": 117, "NAME": "Peoples Church Toronto", "POSTAL": null, "ADDRESS": "374 Sheppard Avenue East", "TYPE": "Non-denominational", "Latitude": 43.76593, "Longitude": -79.393845 }, "geometry": { "type": "Point", "coordinates": [ -79.393845, 43.76593 ] } },
{ "type": "Feature", "properties": { "ID": 118, "NAME": "Petah Tikvah Anshe Castilla Congregation", "POSTAL": null, "ADDRESS": "20 Danby Avenue", "TYPE": "Judaism – Sephardic", "Latitude": 43.74933, "Longitude": -79.438655 }, "geometry": { "type": "Point", "coordinates": [ -79.438655, 43.74933 ] } },
{ "type": "Feature", "properties": { "ID": 119, "NAME": "Don Valley Bible Chapel", "POSTAL": null, "ADDRESS": "25 Axsmith Crescent", "TYPE": "Non-denominational", "Latitude": 43.788626, "Longitude": -79.352232 }, "geometry": { "type": "Point", "coordinates": [ -79.352232, 43.788626 ] } },
{ "type": "Feature", "properties": { "ID": 120, "NAME": "Donway Baptist Church", "POSTAL": null, "ADDRESS": "235 The Donway East", "TYPE": "Baptist", "Latitude": 43.740571, "Longitude": -79.342748 }, "geometry": { "type": "Point", "coordinates": [ -79.342748, 43.740571 ] } },
{ "type": "Feature", "properties": { "ID": 121, "NAME": "Calvin Presbyterian Church", "POSTAL": null, "ADDRESS": "26 Delisle Avenue", "TYPE": "Presbyterian", "Latitude": 43.689121, "Longitude": -79.396135 }, "geometry": { "type": "Point", "coordinates": [ -79.396135, 43.689121 ] } },
{ "type": "Feature", "properties": { "ID": 122, "NAME": "Dorset Park Baptist Church", "POSTAL": null, "ADDRESS": "1428 Kennedy Road", "TYPE": "Baptist", "Latitude": 43.764331, "Longitude": -79.281187 }, "geometry": { "type": "Point", "coordinates": [ -79.281187, 43.764331 ] } },
{ "type": "Feature", "properties": { "ID": 123, "NAME": "Blythwood Road Baptist Church", "POSTAL": null, "ADDRESS": "80 Blythwood Road", "TYPE": "Baptist", "Latitude": 43.717549, "Longitude": -79.398093 }, "geometry": { "type": "Point", "coordinates": [ -79.398093, 43.717549 ] } },
{ "type": "Feature", "properties": { "ID": 124, "NAME": "Dovercourt Baptist Church", "POSTAL": null, "ADDRESS": "1140 Bloor Street West", "TYPE": "Baptist", "Latitude": 43.659874, "Longitude": -79.436149 }, "geometry": { "type": "Point", "coordinates": [ -79.436149, 43.659874 ] } },
{ "type": "Feature", "properties": { "ID": 125, "NAME": "Polski Kosciol Pelnej Ewangelii (former St. Agnes Anglican Church)", "POSTAL": null, "ADDRESS": "69 Long Branch Avenue", "TYPE": "Full Gospel", "Latitude": 43.593657, "Longitude": -79.533429 }, "geometry": { "type": "Point", "coordinates": [ -79.533429, 43.593657 ] } },
{ "type": "Feature", "properties": { "ID": 126, "NAME": "Downsview United Church", "POSTAL": null, "ADDRESS": "2822 Keele Street", "TYPE": "United Church", "Latitude": 43.729896, "Longitude": -79.482795 }, "geometry": { "type": "Point", "coordinates": [ -79.482795, 43.729896 ] } },
{ "type": "Feature", "properties": { "ID": 127, "NAME": "Castlefield Community Church", "POSTAL": null, "ADDRESS": "27 Castlefield Avenue", "TYPE": "Apostolic Christian", "Latitude": 43.711227, "Longitude": -79.400538 }, "geometry": { "type": "Point", "coordinates": [ -79.400538, 43.711227 ] } },
{ "type": "Feature", "properties": { "ID": 128, "NAME": "Prayer Outreach Ministries", "POSTAL": null, "ADDRESS": "587 Oakwood Avenue", "TYPE": "Unknown", "Latitude": 43.696265, "Longitude": -79.44193 }, "geometry": { "type": "Point", "coordinates": [ -79.44193, 43.696265 ] } },
{ "type": "Feature", "properties": { "ID": 129, "NAME": "Precious Blood Roman Catholic Church", "POSTAL": null, "ADDRESS": "1737 Lawrence Avenue East", "TYPE": "Roman Catholic", "Latitude": 43.742188, "Longitude": -79.307344 }, "geometry": { "type": "Point", "coordinates": [ -79.307344, 43.742188 ] } },
{ "type": "Feature", "properties": { "ID": 130, "NAME": "Queen Street East Presbyterian Church", "POSTAL": null, "ADDRESS": "947 Queen Street East", "TYPE": "Presbyterian", "Latitude": 43.660769, "Longitude": -79.339573 }, "geometry": { "type": "Point", "coordinates": [ -79.339573, 43.660769 ] } },
{ "type": "Feature", "properties": { "ID": 131, "NAME": "Dufferin Street Baptist Church", "POSTAL": null, "ADDRESS": "1219 Dufferin Street", "TYPE": "Baptist", "Latitude": 43.66609, "Longitude": -79.437696 }, "geometry": { "type": "Point", "coordinates": [ -79.437696, 43.66609 ] } },
{ "type": "Feature", "properties": { "ID": 132, "NAME": "Grace Christian Reformed Church", "POSTAL": null, "ADDRESS": "25 Channel Nine Court", "TYPE": "Christian Reformed Church", "Latitude": 43.784172, "Longitude": -79.256832 }, "geometry": { "type": "Point", "coordinates": [ -79.256832, 43.784172 ] } },
{ "type": "Feature", "properties": { "ID": 133, "NAME": "Grace Church-on-the-Hill", "POSTAL": null, "ADDRESS": "300 Lonsdale Road", "TYPE": "Anglican", "Latitude": 43.689484, "Longitude": -79.409887 }, "geometry": { "type": "Point", "coordinates": [ -79.409887, 43.689484 ] } },
{ "type": "Feature", "properties": { "ID": 134, "NAME": "Cecil Street Community Centre (formerly Disciples of Christ Church)", "POSTAL": null, "ADDRESS": "58 Cecil Street", "TYPE": "Non-religious", "Latitude": 43.656382, "Longitude": -79.398599 }, "geometry": { "type": "Point", "coordinates": [ -79.398599, 43.656382 ] } },
{ "type": "Feature", "properties": { "ID": 135, "NAME": "Redeemer Lutheran Church", "POSTAL": null, "ADDRESS": "1691 Bloor Street West", "TYPE": "Lutheran", "Latitude": 43.65491, "Longitude": -79.457372 }, "geometry": { "type": "Point", "coordinates": [ -79.457372, 43.65491 ] } },
{ "type": "Feature", "properties": { "ID": 136, "NAME": "Faith Presbyterian Community Church", "POSTAL": null, "ADDRESS": "140 Dawes Road", "TYPE": "Presbyterian", "Latitude": 43.693788, "Longitude": -79.297566 }, "geometry": { "type": "Point", "coordinates": [ -79.297566, 43.693788 ] } },
{ "type": "Feature", "properties": { "ID": 137, "NAME": "Holy Eucharist Ukrainian Catholic Church", "POSTAL": null, "ADDRESS": "515 Broadview Avenue", "TYPE": "Ukrainian Catholic", "Latitude": 43.670879, "Longitude": -79.353684 }, "geometry": { "type": "Point", "coordinates": [ -79.353684, 43.670879 ] } },
{ "type": "Feature", "properties": { "ID": 138, "NAME": "Celebration Presbyterian Church", "POSTAL": null, "ADDRESS": "500 Coldstream Avenue", "TYPE": "Presbyterian", "Latitude": 43.715318, "Longitude": -79.42909 }, "geometry": { "type": "Point", "coordinates": [ -79.42909, 43.715318 ] } },
{ "type": "Feature", "properties": { "ID": 139, "NAME": "Rehoboth Fellowship Christian Reformed Church", "POSTAL": null, "ADDRESS": "800 Burnhamthorpe Road", "TYPE": "Christian Reformed Church", "Latitude": 43.640723, "Longitude": -79.581613 }, "geometry": { "type": "Point", "coordinates": [ -79.581613, 43.640723 ] } },
{ "type": "Feature", "properties": { "ID": 140, "NAME": "Celestial Church of Christ", "POSTAL": null, "ADDRESS": "1322 Jane Street", "TYPE": "Church of Christ", "Latitude": 43.692112, "Longitude": -79.501143 }, "geometry": { "type": "Point", "coordinates": [ -79.501143, 43.692112 ] } },
{ "type": "Feature", "properties": { "ID": 141, "NAME": "Renforth Baptist Church", "POSTAL": null, "ADDRESS": "627 Burnhamthorpe Road", "TYPE": "Baptist", "Latitude": 43.643705, "Longitude": -79.573206 }, "geometry": { "type": "Point", "coordinates": [ -79.573206, 43.643705 ] } },
{ "type": "Feature", "properties": { "ID": 142, "NAME": "St. Eugene's Chapel", "POSTAL": null, "ADDRESS": "13 Regina Aveune", "TYPE": "Roman Catholic", "Latitude": 43.725344, "Longitude": -79.442215 }, "geometry": { "type": "Point", "coordinates": [ -79.442215, 43.725344 ] } },
{ "type": "Feature", "properties": { "ID": 143, "NAME": "Revivaltime Tabernacle", "POSTAL": null, "ADDRESS": "4340 Dufferin Street", "TYPE": "Pentecostal", "Latitude": 43.762585, "Longitude": -79.466918 }, "geometry": { "type": "Point", "coordinates": [ -79.466918, 43.762585 ] } },
{ "type": "Feature", "properties": { "ID": 144, "NAME": "Rexdale Gospel Hall", "POSTAL": null, "ADDRESS": "72 Bergamot Avenue", "TYPE": "Non-denominational", "Latitude": 43.716877, "Longitude": -79.557394 }, "geometry": { "type": "Point", "coordinates": [ -79.557394, 43.716877 ] } },
{ "type": "Feature", "properties": { "ID": 145, "NAME": "Centennial United Church", "POSTAL": null, "ADDRESS": "6550 Kingston Road", "TYPE": "United Church", "Latitude": 43.794389, "Longitude": -79.153993 }, "geometry": { "type": "Point", "coordinates": [ -79.153993, 43.794389 ] } },
{ "type": "Feature", "properties": { "ID": 146, "NAME": "Fallingbrook Presbyterian Church", "POSTAL": null, "ADDRESS": "31 Wood Glen Road", "TYPE": "Presbyterian", "Latitude": 43.684152, "Longitude": -79.275416 }, "geometry": { "type": "Point", "coordinates": [ -79.275416, 43.684152 ] } },
{ "type": "Feature", "properties": { "ID": 147, "NAME": "Central Christadelphian Church", "POSTAL": null, "ADDRESS": "728 Church Street", "TYPE": "Christadelphian", "Latitude": 43.672115, "Longitude": -79.384084 }, "geometry": { "type": "Point", "coordinates": [ -79.384084, 43.672115 ] } },
{ "type": "Feature", "properties": { "ID": 148, "NAME": "Farmer Memorial Baptist Church", "POSTAL": null, "ADDRESS": "293 South Kingsway", "TYPE": "Baptist", "Latitude": 43.647883, "Longitude": -79.484276 }, "geometry": { "type": "Point", "coordinates": [ -79.484276, 43.647883 ] } },
{ "type": "Feature", "properties": { "ID": 149, "NAME": "Fellowship Presbyterian Church", "POSTAL": null, "ADDRESS": "80 Thistle Down Blvd.", "TYPE": "Presbyterian", "Latitude": 43.737911, "Longitude": -79.556163 }, "geometry": { "type": "Point", "coordinates": [ -79.556163, 43.737911 ] } },
{ "type": "Feature", "properties": { "ID": 150, "NAME": "Richview Baptist Church", "POSTAL": null, "ADDRESS": "1548 Kipling Avenue", "TYPE": "Baptist", "Latitude": 43.680788, "Longitude": -79.5531 }, "geometry": { "type": "Point", "coordinates": [ -79.5531, 43.680788 ] } },
{ "type": "Feature", "properties": { "ID": 151, "NAME": "The Swanwick Historic Loft (formerly Emmanuel Presbyterian Church)", "POSTAL": null, "ADDRESS": "21 Swanwick Avenue", "TYPE": "Non-religious", "Latitude": 43.681781, "Longitude": -79.300859 }, "geometry": { "type": "Point", "coordinates": [ -79.300859, 43.681781 ] } },
{ "type": "Feature", "properties": { "ID": 152, "NAME": "Holy Trinity Anglican Church", "POSTAL": null, "ADDRESS": "19 Trinity Square", "TYPE": "Anglican", "Latitude": 43.65456, "Longitude": -79.381518 }, "geometry": { "type": "Point", "coordinates": [ -79.381518, 43.65456 ] } },
{ "type": "Feature", "properties": { "ID": 153, "NAME": "St. Paul's United Church, Scarborough", "POSTAL": null, "ADDRESS": "200 MacIntosh Street", "TYPE": "United Church", "Latitude": 43.709643, "Longitude": -79.251033 }, "geometry": { "type": "Point", "coordinates": [ -79.251033, 43.709643 ] } },
{ "type": "Feature", "properties": { "ID": 154, "NAME": "Forest Grove United Church", "POSTAL": null, "ADDRESS": "43 Forest Grove Drive", "TYPE": "United Church", "Latitude": 43.778258, "Longitude": -79.382629 }, "geometry": { "type": "Point", "coordinates": [ -79.382629, 43.778258 ] } },
{ "type": "Feature", "properties": { "ID": 155, "NAME": "Wood Green Church", "POSTAL": null, "ADDRESS": "875 Queen Street East", "TYPE": "Anglican", "Latitude": 43.660249, "Longitude": -79.342895 }, "geometry": { "type": "Point", "coordinates": [ -79.342895, 43.660249 ] } },
{ "type": "Feature", "properties": { "ID": 156, "NAME": "St. Peter's Anglican Church", "POSTAL": null, "ADDRESS": "188 Carlton Street", "TYPE": "Anglican", "Latitude": 43.663701, "Longitude": -79.371987 }, "geometry": { "type": "Point", "coordinates": [ -79.371987, 43.663701 ] } },
{ "type": "Feature", "properties": { "ID": 157, "NAME": "St. Peter's Anglican Church", "POSTAL": null, "ADDRESS": "776 Brimley Road", "TYPE": "Anglican", "Latitude": 43.750914, "Longitude": -79.254275 }, "geometry": { "type": "Point", "coordinates": [ -79.254275, 43.750914 ] } },
{ "type": "Feature", "properties": { "ID": 158, "NAME": "St. Peter's Estonian Lutheran Church", "POSTAL": null, "ADDRESS": "817 Mount Pleasant Road", "TYPE": "Lutheran", "Latitude": 43.708997, "Longitude": -79.390356 }, "geometry": { "type": "Point", "coordinates": [ -79.390356, 43.708997 ] } },
{ "type": "Feature", "properties": { "ID": 159, "NAME": "St. Peter's Roman Catholic Church", "POSTAL": null, "ADDRESS": "840 Bathurst Street\/659 Markham Street", "TYPE": "Roman Catholic", "Latitude": 43.666073, "Longitude": -79.411604 }, "geometry": { "type": "Point", "coordinates": [ -79.411604, 43.666073 ] } },
{ "type": "Feature", "properties": { "ID": 160, "NAME": "Holy Trinity Greek Orthodox Church (Panagia Grigoroussa)", "POSTAL": null, "ADDRESS": "54 Clinton Street", "TYPE": "Greek Orthodox", "Latitude": 43.655677, "Longitude": -79.414318 }, "geometry": { "type": "Point", "coordinates": [ -79.414318, 43.655677 ] } },
{ "type": "Feature", "properties": { "ID": 161, "NAME": "Holy Trinity Russian Orthodox Church", "POSTAL": null, "ADDRESS": "23 Henry Street", "TYPE": "Russian Orthodox", "Latitude": 43.657288, "Longitude": -79.393626 }, "geometry": { "type": "Point", "coordinates": [ -79.393626, 43.657288 ] } },
{ "type": "Feature", "properties": { "ID": 162, "NAME": "St. Philip Neri Church and Friary", "POSTAL": null, "ADDRESS": "2100 Jane Street", "TYPE": "Roman Catholic", "Latitude": 43.719364, "Longitude": -79.508664 }, "geometry": { "type": "Point", "coordinates": [ -79.508664, 43.719364 ] } },
{ "type": "Feature", "properties": { "ID": 163, "NAME": "St. George the Martyr Anglican Church Tower", "POSTAL": null, "ADDRESS": "197 John Street", "TYPE": "Anglican", "Latitude": 43.65151, "Longitude": -79.391155 }, "geometry": { "type": "Point", "coordinates": [ -79.391155, 43.65151 ] } },
{ "type": "Feature", "properties": { "ID": 164, "NAME": "St. Philip's Anglican Church", "POSTAL": null, "ADDRESS": "31 St. Philip's Road", "TYPE": "Anglican", "Latitude": 43.703092, "Longitude": -79.531962 }, "geometry": { "type": "Point", "coordinates": [ -79.531962, 43.703092 ] } },
{ "type": "Feature", "properties": { "ID": 165, "NAME": "St. Philip-the-Apostle Anglican Church", "POSTAL": null, "ADDRESS": "201 Caribou Road", "TYPE": "Anglican", "Latitude": 43.71749, "Longitude": -79.429114 }, "geometry": { "type": "Point", "coordinates": [ -79.429114, 43.71749 ] } },
{ "type": "Feature", "properties": { "ID": 166, "NAME": "Hope United Church", "POSTAL": null, "ADDRESS": "2550 Danforth Avenue", "TYPE": "United Church", "Latitude": 43.688294, "Longitude": -79.302145 }, "geometry": { "type": "Point", "coordinates": [ -79.302145, 43.688294 ] } },
{ "type": "Feature", "properties": { "ID": 167, "NAME": "St. Paul's Anglican Church", "POSTAL": null, "ADDRESS": "227 Bloor Street East", "TYPE": "Anglican", "Latitude": 43.671148, "Longitude": -79.381596 }, "geometry": { "type": "Point", "coordinates": [ -79.381596, 43.671148 ] } },
{ "type": "Feature", "properties": { "ID": 168, "NAME": "St. Sava Serbian Orthodox Church", "POSTAL": null, "ADDRESS": "203 River Street", "TYPE": "Serbian Orthodox", "Latitude": 43.664012, "Longitude": -79.359096 }, "geometry": { "type": "Point", "coordinates": [ -79.359096, 43.664012 ] } },
{ "type": "Feature", "properties": { "ID": 169, "NAME": "St. Saviour Anglican Church", "POSTAL": null, "ADDRESS": "43 Kimberly Avenue", "TYPE": "Anglican", "Latitude": 43.682627, "Longitude": -79.297777 }, "geometry": { "type": "Point", "coordinates": [ -79.297777, 43.682627 ] } },
{ "type": "Feature", "properties": { "ID": 170, "NAME": "Humber Valley United Church", "POSTAL": null, "ADDRESS": "76 Anglesey Blvd.", "TYPE": "United Church", "Latitude": 43.66515, "Longitude": -79.52894 }, "geometry": { "type": "Point", "coordinates": [ -79.52894, 43.66515 ] } },
{ "type": "Feature", "properties": { "ID": 171, "NAME": "St. Sebastian's Roman Catholic Church", "POSTAL": null, "ADDRESS": "10 Pauline Avenue", "TYPE": "Roman Catholic", "Latitude": 43.659805, "Longitude": -79.437754 }, "geometry": { "type": "Point", "coordinates": [ -79.437754, 43.659805 ] } },
{ "type": "Feature", "properties": { "ID": 172, "NAME": "St. Simon the Apostle Anglican Church", "POSTAL": null, "ADDRESS": "40 Howard Street", "TYPE": "Anglican", "Latitude": 43.671477, "Longitude": -79.373796 }, "geometry": { "type": "Point", "coordinates": [ -79.373796, 43.671477 ] } },
{ "type": "Feature", "properties": { "ID": 173, "NAME": "Iondale Heights United Church", "POSTAL": null, "ADDRESS": "115 Ionview Road", "TYPE": "United Church", "Latitude": 43.739613, "Longitude": -79.274053 }, "geometry": { "type": "Point", "coordinates": [ -79.274053, 43.739613 ] } },
{ "type": "Feature", "properties": { "ID": 174, "NAME": "St. Stanislaus Kostka Roman Catholic Church (formerly West Presbyterian Church)", "POSTAL": null, "ADDRESS": "12 Denison Avenue", "TYPE": "Roman Catholic", "Latitude": 43.6484, "Longitude": -79.400948 }, "geometry": { "type": "Point", "coordinates": [ -79.400948, 43.6484 ] } },
{ "type": "Feature", "properties": { "ID": 175, "NAME": "Islington Baptist Church", "POSTAL": null, "ADDRESS": "50 Royalavon Crescent", "TYPE": "Baptist", "Latitude": 43.646068, "Longitude": -79.533742 }, "geometry": { "type": "Point", "coordinates": [ -79.533742, 43.646068 ] } },
{ "type": "Feature", "properties": { "ID": 176, "NAME": "St. Stephen's Presbyterian Church", "POSTAL": null, "ADDRESS": "3817 Lawrence Avenue East", "TYPE": "Presbyterian", "Latitude": 43.76232, "Longitude": -79.212547 }, "geometry": { "type": "Point", "coordinates": [ -79.212547, 43.76232 ] } },
{ "type": "Feature", "properties": { "ID": 177, "NAME": "Islington United Church", "POSTAL": null, "ADDRESS": "25 Burnhamthorpe Road", "TYPE": "United Church", "Latitude": 43.649575, "Longitude": -79.529827 }, "geometry": { "type": "Point", "coordinates": [ -79.529827, 43.649575 ] } },
{ "type": "Feature", "properties": { "ID": 178, "NAME": "St. Paul's Anglican Church", "POSTAL": null, "ADDRESS": "404 Willard Avenue", "TYPE": "Anglican", "Latitude": 43.655459, "Longitude": -79.483962 }, "geometry": { "type": "Point", "coordinates": [ -79.483962, 43.655459 ] } },
{ "type": "Feature", "properties": { "ID": 179, "NAME": "Jami Mosque", "POSTAL": null, "ADDRESS": "56 Boustead Avenue", "TYPE": "Islam - Sunni", "Latitude": 43.653318, "Longitude": -79.454473 }, "geometry": { "type": "Point", "coordinates": [ -79.454473, 43.653318 ] } },
{ "type": "Feature", "properties": { "ID": 180, "NAME": "St. Stephen-in-the-Fields Anglican Church", "POSTAL": null, "ADDRESS": "103 Bellevue Avenue", "TYPE": "Anglican", "Latitude": 43.656945, "Longitude": -79.403963 }, "geometry": { "type": "Point", "coordinates": [ -79.403963, 43.656945 ] } },
{ "type": "Feature", "properties": { "ID": 181, "NAME": "St. Teresa Roman Catholic Church", "POSTAL": null, "ADDRESS": "123 Eleventh Street", "TYPE": "Roman Catholic", "Latitude": 43.598743, "Longitude": -79.509083 }, "geometry": { "type": "Point", "coordinates": [ -79.509083, 43.598743 ] } },
{ "type": "Feature", "properties": { "ID": 182, "NAME": "St. Theodore of Canterbury Anglican Church", "POSTAL": null, "ADDRESS": "111 Catus Avenue", "TYPE": "Anglican", "Latitude": 43.791821, "Longitude": -79.433436 }, "geometry": { "type": "Point", "coordinates": [ -79.433436, 43.791821 ] } },
{ "type": "Feature", "properties": { "ID": 183, "NAME": "St. Theresa Roman Catholic Church (Shrine of the Little Flower)", "POSTAL": null, "ADDRESS": "2559 Kingston Road", "TYPE": "Roman Catholic", "Latitude": 43.711287, "Longitude": -79.24755 }, "geometry": { "type": "Point", "coordinates": [ -79.24755, 43.711287 ] } },
{ "type": "Feature", "properties": { "ID": 184, "NAME": "Jarvis Street Baptist Church", "POSTAL": null, "ADDRESS": "130 Gerrard Street East", "TYPE": "Baptist", "Latitude": 43.660838, "Longitude": -79.375397 }, "geometry": { "type": "Point", "coordinates": [ -79.375397, 43.660838 ] } },
{ "type": "Feature", "properties": { "ID": 185, "NAME": "St. Thomas Anglican Church", "POSTAL": null, "ADDRESS": "383-385 Huron Street", "TYPE": "Anglican", "Latitude": 43.665926, "Longitude": -79.400745 }, "geometry": { "type": "Point", "coordinates": [ -79.400745, 43.665926 ] } },
{ "type": "Feature", "properties": { "ID": 186, "NAME": "St. Thomas Aquinas Chapel", "POSTAL": null, "ADDRESS": "50 Hoskin Avenue and 89 St. George Street", "TYPE": "Roman Catholic", "Latitude": 43.66408, "Longitude": -79.398439 }, "geometry": { "type": "Point", "coordinates": [ -79.398439, 43.66408 ] } },
{ "type": "Feature", "properties": { "ID": 187, "NAME": "St. Thomas Aquinas Roman Catholic Church", "POSTAL": null, "ADDRESS": "640 Glenholme Avenue", "TYPE": "Roman Catholic", "Latitude": 43.69633, "Longitude": -79.445428 }, "geometry": { "type": "Point", "coordinates": [ -79.445428, 43.69633 ] } },
{ "type": "Feature", "properties": { "ID": 188, "NAME": "Church of St. Augustine of Canterbury", "POSTAL": null, "ADDRESS": "1847 Bayview Avenue", "TYPE": "Anglican", "Latitude": 43.714157, "Longitude": -79.377134 }, "geometry": { "type": "Point", "coordinates": [ -79.377134, 43.714157 ] } },
{ "type": "Feature", "properties": { "ID": 189, "NAME": "St. Timothy by-the-Humber", "POSTAL": null, "ADDRESS": "2840 Weston Road", "TYPE": "Anglican", "Latitude": 43.721026, "Longitude": -79.537736 }, "geometry": { "type": "Point", "coordinates": [ -79.537736, 43.721026 ] } },
{ "type": "Feature", "properties": { "ID": 190, "NAME": "St. Luke's United Church", "POSTAL": null, "ADDRESS": "353-355 Sherbourne Street", "TYPE": "United Church", "Latitude": 43.663036, "Longitude": -79.372629 }, "geometry": { "type": "Point", "coordinates": [ -79.372629, 43.663036 ] } },
{ "type": "Feature", "properties": { "ID": 191, "NAME": "St. Timothy's Agincourt", "POSTAL": null, "ADDRESS": "4125 Sheppard Avenue East", "TYPE": "Anglican", "Latitude": 43.784266, "Longitude": -79.282419 }, "geometry": { "type": "Point", "coordinates": [ -79.282419, 43.784266 ] } },
{ "type": "Feature", "properties": { "ID": 192, "NAME": "St. Timothy's Catholic Church", "POSTAL": null, "ADDRESS": "21 Leith Hill Road", "TYPE": "Roman Catholic", "Latitude": 43.776252, "Longitude": -79.350384 }, "geometry": { "type": "Point", "coordinates": [ -79.350384, 43.776252 ] } },
{ "type": "Feature", "properties": { "ID": 193, "NAME": "Keele Street Christian Church", "POSTAL": null, "ADDRESS": "99 Annette Street", "TYPE": "Non-denominational Christian", "Latitude": 43.66337, "Longitude": -79.463334 }, "geometry": { "type": "Point", "coordinates": [ -79.463334, 43.66337 ] } },
{ "type": "Feature", "properties": { "ID": 194, "NAME": "St. Vincent de Paul", "POSTAL": null, "ADDRESS": "263 Roncesvalles Avenue", "TYPE": "Roman Catholic", "Latitude": 43.647045, "Longitude": -79.448897 }, "geometry": { "type": "Point", "coordinates": [ -79.448897, 43.647045 ] } },
{ "type": "Feature", "properties": { "ID": 195, "NAME": "Long Branch Baptist Church", "POSTAL": null, "ADDRESS": "3381 Lakeshore Blvd. West", "TYPE": "Baptist", "Latitude": 43.595664, "Longitude": -79.527258 }, "geometry": { "type": "Point", "coordinates": [ -79.527258, 43.595664 ] } },
{ "type": "Feature", "properties": { "ID": 196, "NAME": "St. Volodymyr's Ukrainian Orthodox Cathedral", "POSTAL": null, "ADDRESS": "406 Bathurst Street", "TYPE": "Ukrainian Catholic", "Latitude": 43.654102, "Longitude": -79.407064 }, "geometry": { "type": "Point", "coordinates": [ -79.407064, 43.654102 ] } },
{ "type": "Feature", "properties": { "ID": 197, "NAME": "St. Wilfrid's Anglican Church", "POSTAL": null, "ADDRESS": "1315 Kipling Avenue", "TYPE": "Anglican", "Latitude": 43.666256, "Longitude": -79.545256 }, "geometry": { "type": "Point", "coordinates": [ -79.545256, 43.666256 ] } },
{ "type": "Feature", "properties": { "ID": 198, "NAME": "Sts. Peter and Paul Ukrainian Catholic Church", "POSTAL": null, "ADDRESS": "1490 Markham Road", "TYPE": "Ukrainian Catholic", "Latitude": 43.788465, "Longitude": -79.237665 }, "geometry": { "type": "Point", "coordinates": [ -79.237665, 43.788465 ] } },
{ "type": "Feature", "properties": { "ID": 199, "NAME": "Studio Theatre (former St. Paul Evangelical Lutheran Church)", "POSTAL": null, "ADDRESS": "4 Glen Morris Street", "TYPE": "Non-religious", "Latitude": 43.664391, "Longitude": -79.401193 }, "geometry": { "type": "Point", "coordinates": [ -79.401193, 43.664391 ] } },
{ "type": "Feature", "properties": { "ID": 200, "NAME": "St. Margaret of Scotland", "POSTAL": null, "ADDRESS": "222 Ridley Blvd.", "TYPE": "Roman Catholic", "Latitude": 43.738563, "Longitude": -79.421596 }, "geometry": { "type": "Point", "coordinates": [ -79.421596, 43.738563 ] } },
{ "type": "Feature", "properties": { "ID": 201, "NAME": "St. John's Anglican Church Weston", "POSTAL": null, "ADDRESS": "2125 Weston Road", "TYPE": "Anglican", "Latitude": 43.702984, "Longitude": -79.524074 }, "geometry": { "type": "Point", "coordinates": [ -79.524074, 43.702984 ] } },
{ "type": "Feature", "properties": { "ID": 202, "NAME": "St. John's Catholic Church", "POSTAL": null, "ADDRESS": "786 Kingston Road", "TYPE": "Roman Catholic", "Latitude": 43.68018, "Longitude": -79.293689 }, "geometry": { "type": "Point", "coordinates": [ -79.293689, 43.68018 ] } },
{ "type": "Feature", "properties": { "ID": 203, "NAME": "St. John's Evangelical Lutheran Church", "POSTAL": null, "ADDRESS": "274 Concord Avenue", "TYPE": "Lutheran", "Latitude": 43.661004, "Longitude": -79.427005 }, "geometry": { "type": "Point", "coordinates": [ -79.427005, 43.661004 ] } },
{ "type": "Feature", "properties": { "ID": 204, "NAME": "St. John's Latvian Lutheran Church", "POSTAL": null, "ADDRESS": "200 Balmoral Avenue", "TYPE": "Lutheran", "Latitude": 43.684098, "Longitude": -79.402644 }, "geometry": { "type": "Point", "coordinates": [ -79.402644, 43.684098 ] } },
{ "type": "Feature", "properties": { "ID": 205, "NAME": "St. John's Polish National Church", "POSTAL": null, "ADDRESS": "180-186 Cowan Avenue", "TYPE": "Polish National Catholic", "Latitude": 43.639753, "Longitude": -79.43276 }, "geometry": { "type": "Point", "coordinates": [ -79.43276, 43.639753 ] } },
{ "type": "Feature", "properties": { "ID": 206, "NAME": "Former Bedford Park United Church", "POSTAL": null, "ADDRESS": "100 Ranleigh Avenue", "TYPE": "United Church", "Latitude": 43.728662, "Longitude": -79.399964 }, "geometry": { "type": "Point", "coordinates": [ -79.399964, 43.728662 ] } },
{ "type": "Feature", "properties": { "ID": 207, "NAME": "St. John's Presbyterian Church", "POSTAL": null, "ADDRESS": "415 Broadview Avenue", "TYPE": "Presbyterian", "Latitude": 43.666522, "Longitude": -79.352655 }, "geometry": { "type": "Point", "coordinates": [ -79.352655, 43.666522 ] } },
{ "type": "Feature", "properties": { "ID": 208, "NAME": "Kingsway-Lambton United Church", "POSTAL": null, "ADDRESS": "85 The Kingsway", "TYPE": "United Church", "Latitude": 43.652831, "Longitude": -79.507787 }, "geometry": { "type": "Point", "coordinates": [ -79.507787, 43.652831 ] } },
{ "type": "Feature", "properties": { "ID": 209, "NAME": "St. John's United Church", "POSTAL": null, "ADDRESS": "2 Nobert Road", "TYPE": "United Church", "Latitude": 43.771891, "Longitude": -79.319753 }, "geometry": { "type": "Point", "coordinates": [ -79.319753, 43.771891 ] } },
{ "type": "Feature", "properties": { "ID": 210, "NAME": "Kipling Avenue Baptist Church", "POSTAL": null, "ADDRESS": "2240 Kipling Avenue North", "TYPE": "Baptist", "Latitude": 43.725951, "Longitude": -79.574068 }, "geometry": { "type": "Point", "coordinates": [ -79.574068, 43.725951 ] } },
{ "type": "Feature", "properties": { "ID": 211, "NAME": "Calvary Baptist Church", "POSTAL": null, "ADDRESS": "72 Main Street", "TYPE": "Baptist", "Latitude": 43.680982, "Longitude": -79.299239 }, "geometry": { "type": "Point", "coordinates": [ -79.299239, 43.680982 ] } },
{ "type": "Feature", "properties": { "ID": 212, "NAME": "St. Josaphat Ukrainian Catholic Cathedral", "POSTAL": null, "ADDRESS": "143 Franklin Avenue", "TYPE": "Unknown", "Latitude": 43.663603, "Longitude": -79.453314 }, "geometry": { "type": "Point", "coordinates": [ -79.453314, 43.663603 ] } },
{ "type": "Feature", "properties": { "ID": 213, "NAME": "St. Joseph and Our Lady of Good Health Roman Catholic Church", "POSTAL": null, "ADDRESS": "65 Curzon Street", "TYPE": "Roman Catholic", "Latitude": 43.665162, "Longitude": -79.331939 }, "geometry": { "type": "Point", "coordinates": [ -79.331939, 43.665162 ] } },
{ "type": "Feature", "properties": { "ID": 214, "NAME": "St. Joseph Morrow Chapel", "POSTAL": null, "ADDRESS": "3377 Bayview Avenue", "TYPE": "Roman Catholic", "Latitude": 43.796769, "Longitude": -79.392156 }, "geometry": { "type": "Point", "coordinates": [ -79.392156, 43.796769 ] } },
{ "type": "Feature", "properties": { "ID": 215, "NAME": "College Street United Church", "POSTAL": null, "ADDRESS": "452 College Street", "TYPE": "United Church", "Latitude": 43.656676, "Longitude": -79.408153 }, "geometry": { "type": "Point", "coordinates": [ -79.408153, 43.656676 ] } },
{ "type": "Feature", "properties": { "ID": 216, "NAME": "Christ the King", "POSTAL": null, "ADDRESS": "3674 Lakeshore Blvd. West", "TYPE": "Roman Catholic", "Latitude": 43.593743, "Longitude": -79.537625 }, "geometry": { "type": "Point", "coordinates": [ -79.537625, 43.593743 ] } },
{ "type": "Feature", "properties": { "ID": 217, "NAME": "Knesseth Israel (Junction Shul)", "POSTAL": null, "ADDRESS": "56 Maria Street", "TYPE": "Judaism - Orthodox", "Latitude": 43.666509, "Longitude": -79.47542 }, "geometry": { "type": "Point", "coordinates": [ -79.47542, 43.666509 ] } },
{ "type": "Feature", "properties": { "ID": 218, "NAME": "St. Joseph's Church", "POSTAL": null, "ADDRESS": "200 Morrish Road", "TYPE": "Roman Catholic", "Latitude": 43.783607, "Longitude": -79.171047 }, "geometry": { "type": "Point", "coordinates": [ -79.171047, 43.783607 ] } },
{ "type": "Feature", "properties": { "ID": 219, "NAME": "Former Glebe Presbyterian Church", "POSTAL": null, "ADDRESS": "124 Belsize Drive", "TYPE": "N\/A", "Latitude": 43.702592, "Longitude": -79.389376 }, "geometry": { "type": "Point", "coordinates": [ -79.389376, 43.702592 ] } },
{ "type": "Feature", "properties": { "ID": 220, "NAME": "The Church of the Apostles", "POSTAL": null, "ADDRESS": "719 Sheppard Avenue West", "TYPE": "Anglican", "Latitude": 43.754129, "Longitude": -79.445092 }, "geometry": { "type": "Point", "coordinates": [ -79.445092, 43.754129 ] } },
{ "type": "Feature", "properties": { "ID": 221, "NAME": "Knob Hill United Church", "POSTAL": null, "ADDRESS": "23 Gage Avenue", "TYPE": "United Church", "Latitude": 43.748698, "Longitude": -79.248333 }, "geometry": { "type": "Point", "coordinates": [ -79.248333, 43.748698 ] } },
{ "type": "Feature", "properties": { "ID": 222, "NAME": "Galilee Presbyterian Church", "POSTAL": null, "ADDRESS": "1183 Davenport Road", "TYPE": "Presbyterian", "Latitude": 43.674135, "Longitude": -79.433581 }, "geometry": { "type": "Point", "coordinates": [ -79.433581, 43.674135 ] } },
{ "type": "Feature", "properties": { "ID": 223, "NAME": "Knox Agincourt Presbyterian Church", "POSTAL": null, "ADDRESS": "4156 Sheppard Avenue East", "TYPE": "Presbyterian", "Latitude": 43.785275, "Longitude": -79.281363 }, "geometry": { "type": "Point", "coordinates": [ -79.281363, 43.785275 ] } },
{ "type": "Feature", "properties": { "ID": 224, "NAME": "St. Jude's Anglican Church", "POSTAL": null, "ADDRESS": "10 Howarth Avenue", "TYPE": "Anglican", "Latitude": 43.738631, "Longitude": -79.307385 }, "geometry": { "type": "Point", "coordinates": [ -79.307385, 43.738631 ] } },
{ "type": "Feature", "properties": { "ID": 225, "NAME": "St. Jude's Church", "POSTAL": null, "ADDRESS": "1745 Victoria Park Avenue", "TYPE": "Anglican", "Latitude": 43.73859, "Longitude": -79.30707 }, "geometry": { "type": "Point", "coordinates": [ -79.30707, 43.73859 ] } },
{ "type": "Feature", "properties": { "ID": 226, "NAME": "St. Lawrence the Martyr Roman Catholic Church", "POSTAL": null, "ADDRESS": "2210 Lawrence Avenue East", "TYPE": "Roman Catholic", "Latitude": 43.748881, "Longitude": -79.280529 }, "geometry": { "type": "Point", "coordinates": [ -79.280529, 43.748881 ] } },
{ "type": "Feature", "properties": { "ID": 227, "NAME": "St. Leo's Church", "POSTAL": null, "ADDRESS": "277 Royal York Road", "TYPE": "Roman Catholic", "Latitude": 43.614073, "Longitude": -79.497125 }, "geometry": { "type": "Point", "coordinates": [ -79.497125, 43.614073 ] } },
{ "type": "Feature", "properties": { "ID": 228, "NAME": "St. Leonard's Church", "POSTAL": null, "ADDRESS": "25 Wanless Avenue", "TYPE": "Anglican", "Latitude": 43.726379, "Longitude": -79.401356 }, "geometry": { "type": "Point", "coordinates": [ -79.401356, 43.726379 ] } },
{ "type": "Feature", "properties": { "ID": 229, "NAME": "Presteign-Woodbine United Church", "POSTAL": null, "ADDRESS": "2538 St. Clair Avenue East", "TYPE": "United Church", "Latitude": 43.704524, "Longitude": -79.319341 }, "geometry": { "type": "Point", "coordinates": [ -79.319341, 43.704524 ] } },
{ "type": "Feature", "properties": { "ID": 230, "NAME": "Glebe Road United Church", "POSTAL": null, "ADDRESS": "20 Glebe Road East", "TYPE": "United Church", "Latitude": 43.701501, "Longitude": -79.395507 }, "geometry": { "type": "Point", "coordinates": [ -79.395507, 43.701501 ] } },
{ "type": "Feature", "properties": { "ID": 231, "NAME": "Glen Ayr United Church", "POSTAL": null, "ADDRESS": "55 Brimorton Drive", "TYPE": "United Church", "Latitude": 43.765815, "Longitude": -79.254674 }, "geometry": { "type": "Point", "coordinates": [ -79.254674, 43.765815 ] } },
{ "type": "Feature", "properties": { "ID": 232, "NAME": "St. Luke's Anglican Church", "POSTAL": null, "ADDRESS": "904 Coxwell Avenue", "TYPE": "Anglican", "Latitude": 43.694264, "Longitude": -79.328556 }, "geometry": { "type": "Point", "coordinates": [ -79.328556, 43.694264 ] } },
{ "type": "Feature", "properties": { "ID": 233, "NAME": "The Church of the Resurrection", "POSTAL": null, "ADDRESS": "1100 Woodbine Avenue", "TYPE": "Anglican", "Latitude": 43.689037, "Longitude": -79.314735 }, "geometry": { "type": "Point", "coordinates": [ -79.314735, 43.689037 ] } },
{ "type": "Feature", "properties": { "ID": 234, "NAME": "Glen Rhodes United Church\/All Nation Christian Fellowship", "POSTAL": null, "ADDRESS": "1470 Gerrard Street East", "TYPE": "United Church", "Latitude": 43.672648, "Longitude": -79.3209 }, "geometry": { "type": "Point", "coordinates": [ -79.3209, 43.672648 ] } },
{ "type": "Feature", "properties": { "ID": 235, "NAME": "Glenview Presbyterian Church", "POSTAL": null, "ADDRESS": "1 Glenview Avenue", "TYPE": "Presbyterian", "Latitude": 43.719843, "Longitude": -79.401657 }, "geometry": { "type": "Point", "coordinates": [ -79.401657, 43.719843 ] } },
{ "type": "Feature", "properties": { "ID": 236, "NAME": "St. Mark's Roman Catholic Church", "POSTAL": null, "ADDRESS": "277 Park Lawn Road", "TYPE": "Roman Catholic", "Latitude": 43.633979, "Longitude": -79.491987 }, "geometry": { "type": "Point", "coordinates": [ -79.491987, 43.633979 ] } },
{ "type": "Feature", "properties": { "ID": 237, "NAME": "Wilmar Heights Baptist Church", "POSTAL": null, "ADDRESS": "1687 Victoria Park Avenue", "TYPE": "Baptist", "Latitude": 43.735071, "Longitude": -79.306711 }, "geometry": { "type": "Point", "coordinates": [ -79.306711, 43.735071 ] } },
{ "type": "Feature", "properties": { "ID": 238, "NAME": "Willowdale United Church", "POSTAL": null, "ADDRESS": "349 Kenneth Avenue", "TYPE": "United Church", "Latitude": 43.77579, "Longitude": -79.409717 }, "geometry": { "type": "Point", "coordinates": [ -79.409717, 43.77579 ] } },
{ "type": "Feature", "properties": { "ID": 239, "NAME": "St. Martin de Porres Roman Catholic Church", "POSTAL": null, "ADDRESS": "4179 Lawrence Avenue East", "TYPE": "Roman Catholic", "Latitude": 43.76772, "Longitude": -79.187352 }, "geometry": { "type": "Point", "coordinates": [ -79.187352, 43.76772 ] } },
{ "type": "Feature", "properties": { "ID": 240, "NAME": "St. Martin in-the-Fields Anglican Church", "POSTAL": null, "ADDRESS": "151 Glenlake Avenue", "TYPE": "Anglican", "Latitude": 43.658108, "Longitude": -79.460709 }, "geometry": { "type": "Point", "coordinates": [ -79.460709, 43.658108 ] } },
{ "type": "Feature", "properties": { "ID": 241, "NAME": "First Portuguese Evangelical Church", "POSTAL": null, "ADDRESS": "132 Nassau Street", "TYPE": "Non-denominational", "Latitude": 43.654745, "Longitude": -79.405444 }, "geometry": { "type": "Point", "coordinates": [ -79.405444, 43.654745 ] } },
{ "type": "Feature", "properties": { "ID": 242, "NAME": "Prince of Peace Roman Catholic Church", "POSTAL": null, "ADDRESS": "265 Alton Towers Circle", "TYPE": "Roman Catholic", "Latitude": 43.824749, "Longitude": -79.27863 }, "geometry": { "type": "Point", "coordinates": [ -79.27863, 43.824749 ] } },
{ "type": "Feature", "properties": { "ID": 243, "NAME": "St. Mary Dormition Church", "POSTAL": null, "ADDRESS": "276 Bathurst Street", "TYPE": "Ukrainian Catholic", "Latitude": 43.650107, "Longitude": -79.405371 }, "geometry": { "type": "Point", "coordinates": [ -79.405371, 43.650107 ] } },
{ "type": "Feature", "properties": { "ID": 244, "NAME": "Good Shepherd", "POSTAL": null, "ADDRESS": "1149 Weston Road", "TYPE": "Anglican", "Latitude": 43.686939, "Longitude": -79.48949 }, "geometry": { "type": "Point", "coordinates": [ -79.48949, 43.686939 ] } },
{ "type": "Feature", "properties": { "ID": 245, "NAME": "The Epiphany and St. Mark", "POSTAL": null, "ADDRESS": "201 Cowan Avenue", "TYPE": "Anglican", "Latitude": 43.640752, "Longitude": -79.43228 }, "geometry": { "type": "Point", "coordinates": [ -79.43228, 43.640752 ] } },
{ "type": "Feature", "properties": { "ID": 246, "NAME": "St. Mary of the Angels Roman Catholic Church", "POSTAL": null, "ADDRESS": "1481 Dufferin Street", "TYPE": "Roman Catholic", "Latitude": 43.672682, "Longitude": -79.4406 }, "geometry": { "type": "Point", "coordinates": [ -79.4406, 43.672682 ] } },
{ "type": "Feature", "properties": { "ID": 247, "NAME": "Graceview Presbyterian Church", "POSTAL": null, "ADDRESS": "588 Renforth Drive", "TYPE": "Presbyterian", "Latitude": 43.65343, "Longitude": -79.58094 }, "geometry": { "type": "Point", "coordinates": [ -79.58094, 43.65343 ] } },
{ "type": "Feature", "properties": { "ID": 248, "NAME": "Christ the Good Shepherd", "POSTAL": null, "ADDRESS": "182 Sixth Street", "TYPE": "Ukrainian Catholic", "Latitude": 43.603053, "Longitude": -79.505224 }, "geometry": { "type": "Point", "coordinates": [ -79.505224, 43.603053 ] } },
{ "type": "Feature", "properties": { "ID": 249, "NAME": "Congregation B'nai Torah", "POSTAL": null, "ADDRESS": "465 Patricia Avenue", "TYPE": "Judaism - Orthodox", "Latitude": 43.784198, "Longitude": -79.444062 }, "geometry": { "type": "Point", "coordinates": [ -79.444062, 43.784198 ] } },
{ "type": "Feature", "properties": { "ID": 250, "NAME": "Consulate General of Lithuania", "POSTAL": null, "ADDRESS": "1573 Bloor Street West", "TYPE": "Non-religious", "Latitude": 43.655839, "Longitude": -79.454126 }, "geometry": { "type": "Point", "coordinates": [ -79.454126, 43.655839 ] } },
{ "type": "Feature", "properties": { "ID": 251, "NAME": "St. Mary's Roman Catholic Church", "POSTAL": null, "ADDRESS": "130 Bathurst Street", "TYPE": "Roman Catholic", "Latitude": 43.645184, "Longitude": -79.403432 }, "geometry": { "type": "Point", "coordinates": [ -79.403432, 43.645184 ] } },
{ "type": "Feature", "properties": { "ID": 252, "NAME": "Grant African Methodist Episcopal Church", "POSTAL": null, "ADDRESS": "2029 Gerrard Street East", "TYPE": "African Methodist Episcopal Church", "Latitude": 43.68169, "Longitude": -79.308437 }, "geometry": { "type": "Point", "coordinates": [ -79.308437, 43.68169 ] } },
{ "type": "Feature", "properties": { "ID": 253, "NAME": "The Fisherville Church", "POSTAL": null, "ADDRESS": "Black Creek Pioneer Village, 1000 Murray Ross Parkway", "TYPE": "Non-religious", "Latitude": 43.773369, "Longitude": -79.516934 }, "geometry": { "type": "Point", "coordinates": [ -79.516934, 43.773369 ] } },
{ "type": "Feature", "properties": { "ID": 254, "NAME": "Greenborough Community Church\/Assemblée Evangelique Pentecostale", "POSTAL": null, "ADDRESS": "2000 Keele Street", "TYPE": "Baptist", "Latitude": 43.697365, "Longitude": -79.475882 }, "geometry": { "type": "Point", "coordinates": [ -79.475882, 43.697365 ] } },
{ "type": "Feature", "properties": { "ID": 255, "NAME": "St. Matthew the Apostle – Oriele Anglican Church", "POSTAL": null, "ADDRESS": "80 George Henry Blvd.", "TYPE": "Anglican", "Latitude": 43.773664, "Longitude": -79.351176 }, "geometry": { "type": "Point", "coordinates": [ -79.351176, 43.773664 ] } },
{ "type": "Feature", "properties": { "ID": 256, "NAME": "St. Matthew's Anglican Church", "POSTAL": null, "ADDRESS": "135 First Avenue", "TYPE": "Anglican", "Latitude": 43.665503, "Longitude": -79.347249 }, "geometry": { "type": "Point", "coordinates": [ -79.347249, 43.665503 ] } },
{ "type": "Feature", "properties": { "ID": 257, "NAME": "St. Matthew's Anglican Church", "POSTAL": null, "ADDRESS": "3962 Bloor Street West", "TYPE": "Anglican", "Latitude": 43.639397, "Longitude": -79.548921 }, "geometry": { "type": "Point", "coordinates": [ -79.548921, 43.639397 ] } },
{ "type": "Feature", "properties": { "ID": 258, "NAME": "St. Matthew's Lutheran Church", "POSTAL": null, "ADDRESS": "3159 Lawrence Avenue East", "TYPE": "Lutheran", "Latitude": 43.75466, "Longitude": -79.24234 }, "geometry": { "type": "Point", "coordinates": [ -79.24234, 43.75466 ] } },
{ "type": "Feature", "properties": { "ID": 259, "NAME": "St. Matthew's Roman Catholic Church", "POSTAL": null, "ADDRESS": "706 Old Weston Road", "TYPE": "Roman Catholic", "Latitude": 43.681463, "Longitude": -79.467799 }, "geometry": { "type": "Point", "coordinates": [ -79.467799, 43.681463 ] } },
{ "type": "Feature", "properties": { "ID": 260, "NAME": "The Glebe Lofts (former Riverdale Presbyterian Church)", "POSTAL": null, "ADDRESS": "662 Pape Avenue", "TYPE": "Non-religious", "Latitude": 43.67782, "Longitude": -79.344561 }, "geometry": { "type": "Point", "coordinates": [ -79.344561, 43.67782 ] } },
{ "type": "Feature", "properties": { "ID": 261, "NAME": "St. Matthew's United Church", "POSTAL": null, "ADDRESS": "729 St. Clair Avenue West", "TYPE": "United Church", "Latitude": 43.681206, "Longitude": -79.427334 }, "geometry": { "type": "Point", "coordinates": [ -79.427334, 43.681206 ] } },
{ "type": "Feature", "properties": { "ID": 262, "NAME": "St. Matthias Anglican Church", "POSTAL": null, "ADDRESS": "45 Bellwoods Avenue", "TYPE": "Anglican", "Latitude": 43.647809, "Longitude": -79.411151 }, "geometry": { "type": "Point", "coordinates": [ -79.411151, 43.647809 ] } },
{ "type": "Feature", "properties": { "ID": 263, "NAME": "St. Matthias' Anglican Church", "POSTAL": null, "ADDRESS": "1428 Royal York Road", "TYPE": "Anglican", "Latitude": 43.684868, "Longitude": -79.528221 }, "geometry": { "type": "Point", "coordinates": [ -79.528221, 43.684868 ] } },
{ "type": "Feature", "properties": { "ID": 264, "NAME": "Guildwood Community Presbyterian Church", "POSTAL": null, "ADDRESS": "140 Guildwood Parkway", "TYPE": "Presbyterian", "Latitude": 43.748013, "Longitude": -79.198893 }, "geometry": { "type": "Point", "coordinates": [ -79.198893, 43.748013 ] } },
{ "type": "Feature", "properties": { "ID": 265, "NAME": "St. Michael and All Angels Church", "POSTAL": null, "ADDRESS": "611 St. Clair Avenue West", "TYPE": "Anglican", "Latitude": 43.681973, "Longitude": -79.422937 }, "geometry": { "type": "Point", "coordinates": [ -79.422937, 43.681973 ] } },
{ "type": "Feature", "properties": { "ID": 266, "NAME": "GurSikh Sabha Canada", "POSTAL": null, "ADDRESS": "905 Middlefield Road", "TYPE": "Sikhism", "Latitude": 43.828434, "Longitude": -79.265444 }, "geometry": { "type": "Point", "coordinates": [ -79.265444, 43.828434 ] } },
{ "type": "Feature", "properties": { "ID": 267, "NAME": "St. Michael the Archangel Anglican Church\/St. John's Milliken Presbyterian Church", "POSTAL": null, "ADDRESS": "410 Goldhawk Trail", "TYPE": "Non-denominational Christian", "Latitude": 43.825981, "Longitude": -79.278897 }, "geometry": { "type": "Point", "coordinates": [ -79.278897, 43.825981 ] } },
{ "type": "Feature", "properties": { "ID": 268, "NAME": "Willowdale Presbyterian Church", "POSTAL": null, "ADDRESS": "38 Ellerslie Avenue", "TYPE": "Presbyterian", "Latitude": 43.771861, "Longitude": -79.415524 }, "geometry": { "type": "Point", "coordinates": [ -79.415524, 43.771861 ] } },
{ "type": "Feature", "properties": { "ID": 269, "NAME": "St. Michael's Roman Catholic Cathedral", "POSTAL": null, "ADDRESS": "65 Bond Street", "TYPE": "Roman Catholic", "Latitude": 43.654987, "Longitude": -79.37709 }, "geometry": { "type": "Point", "coordinates": [ -79.37709, 43.654987 ] } },
{ "type": "Feature", "properties": { "ID": 270, "NAME": "St. Monica's Catholic Church", "POSTAL": null, "ADDRESS": "44 Broadway Avenue", "TYPE": "Roman Catholic", "Latitude": 43.710686, "Longitude": -79.39659 }, "geometry": { "type": "Point", "coordinates": [ -79.39659, 43.710686 ] } },
{ "type": "Feature", "properties": { "ID": 271, "NAME": "St. Nektarios Greek Orthodox Church", "POSTAL": null, "ADDRESS": "1223 Dovercourt Road", "TYPE": "Greek Orthodox", "Latitude": 43.674008, "Longitude": -79.434115 }, "geometry": { "type": "Point", "coordinates": [ -79.434115, 43.674008 ] } },
{ "type": "Feature", "properties": { "ID": 272, "NAME": "St. Nicholas Birch Cliff Anglican Church", "POSTAL": null, "ADDRESS": "1512 Kingston Road", "TYPE": "Anglican", "Latitude": 43.689522, "Longitude": -79.269139 }, "geometry": { "type": "Point", "coordinates": [ -79.269139, 43.689522 ] } },
{ "type": "Feature", "properties": { "ID": 273, "NAME": "St. Nicholas Greek Orthodox Church", "POSTAL": null, "ADDRESS": "3840 Finch Avenue East", "TYPE": "Greek Orthodox", "Latitude": 43.800519, "Longitude": -79.301233 }, "geometry": { "type": "Point", "coordinates": [ -79.301233, 43.800519 ] } },
{ "type": "Feature", "properties": { "ID": 274, "NAME": "St. Nicholas Ukrainian Catholic Church", "POSTAL": null, "ADDRESS": "4 Bellwoods Avenue", "TYPE": "Ukrainian Catholic", "Latitude": 43.646057, "Longitude": -79.411096 }, "geometry": { "type": "Point", "coordinates": [ -79.411096, 43.646057 ] } },
{ "type": "Feature", "properties": { "ID": 275, "NAME": "St. Nicola di Bari Roman Catholic Church", "POSTAL": null, "ADDRESS": "1277 St. Clair Avenue West", "TYPE": "Roman Catholic", "Latitude": 43.676726, "Longitude": -79.447154 }, "geometry": { "type": "Point", "coordinates": [ -79.447154, 43.676726 ] } },
{ "type": "Feature", "properties": { "ID": 276, "NAME": "St. Ninian Anglican Church", "POSTAL": null, "ADDRESS": "930 Bellamy Road North", "TYPE": "Anglican", "Latitude": 43.76646, "Longitude": -79.239454 }, "geometry": { "type": "Point", "coordinates": [ -79.239454, 43.76646 ] } },
{ "type": "Feature", "properties": { "ID": 277, "NAME": "St. Norbert's Roman Catholic Church", "POSTAL": null, "ADDRESS": "100 Regent Road", "TYPE": "Roman Catholic", "Latitude": 43.732175, "Longitude": -79.46551 }, "geometry": { "type": "Point", "coordinates": [ -79.46551, 43.732175 ] } },
{ "type": "Feature", "properties": { "ID": 278, "NAME": "St. Olave's Anglican Church", "POSTAL": null, "ADDRESS": "360 Windermere Avenue", "TYPE": "Anglican", "Latitude": 43.649568, "Longitude": -79.480886 }, "geometry": { "type": "Point", "coordinates": [ -79.480886, 43.649568 ] } },
{ "type": "Feature", "properties": { "ID": 279, "NAME": "Willowdale Christian Assembly", "POSTAL": null, "ADDRESS": "448 Kenneth Avenue", "TYPE": "N\/A", "Latitude": 43.778495, "Longitude": -79.411477 }, "geometry": { "type": "Point", "coordinates": [ -79.411477, 43.778495 ] } },
{ "type": "Feature", "properties": { "ID": 280, "NAME": "St. Patrick's Anglican Church", "POSTAL": null, "ADDRESS": "1087 Lillian Street", "TYPE": "Anglican", "Latitude": 43.798525, "Longitude": -79.410403 }, "geometry": { "type": "Point", "coordinates": [ -79.410403, 43.798525 ] } },
{ "type": "Feature", "properties": { "ID": 281, "NAME": "Northminster United Church", "POSTAL": null, "ADDRESS": "255 Finch Avenue West", "TYPE": "United Church", "Latitude": 43.774523, "Longitude": -79.437587 }, "geometry": { "type": "Point", "coordinates": [ -79.437587, 43.774523 ] } },
{ "type": "Feature", "properties": { "ID": 282, "NAME": "The Greek Orthodox Cathedral of the Virgin Mary Annunciation and Dormition of the Theotokos", "POSTAL": null, "ADDRESS": "136 Sorauren Avenue", "TYPE": "Greek Orthodox", "Latitude": 43.64358, "Longitude": -79.442743 }, "geometry": { "type": "Point", "coordinates": [ -79.442743, 43.64358 ] } },
{ "type": "Feature", "properties": { "ID": 283, "NAME": "High Park Baptist Church", "POSTAL": null, "ADDRESS": "9 Hewitt Avenue", "TYPE": "Baptist", "Latitude": 43.652245, "Longitude": -79.451813 }, "geometry": { "type": "Point", "coordinates": [ -79.451813, 43.652245 ] } },
{ "type": "Feature", "properties": { "ID": 284, "NAME": "High Park Korean United Church", "POSTAL": null, "ADDRESS": "260 High Park Avenue", "TYPE": "United Church", "Latitude": 43.662501, "Longitude": -79.469732 }, "geometry": { "type": "Point", "coordinates": [ -79.469732, 43.662501 ] } },
{ "type": "Feature", "properties": { "ID": 285, "NAME": "Highfield Road Gospel Hall", "POSTAL": null, "ADDRESS": "33 Highfield Road", "TYPE": "Christian Church (Disciples of Christ)", "Latitude": 43.667507, "Longitude": -79.323135 }, "geometry": { "type": "Point", "coordinates": [ -79.323135, 43.667507 ] } },
{ "type": "Feature", "properties": { "ID": 286, "NAME": "Hillcrest Christian Church", "POSTAL": null, "ADDRESS": "2 Vaughan Road", "TYPE": "Christian Church (Disciples of Christ)", "Latitude": 43.681101, "Longitude": -79.418125 }, "geometry": { "type": "Point", "coordinates": [ -79.418125, 43.681101 ] } },
{ "type": "Feature", "properties": { "ID": 287, "NAME": "St. Patrick's Roman Catholic Church", "POSTAL": null, "ADDRESS": "137 McCaul Street", "TYPE": "Roman Catholic", "Latitude": 43.654759, "Longitude": -79.391357 }, "geometry": { "type": "Point", "coordinates": [ -79.391357, 43.654759 ] } },
{ "type": "Feature", "properties": { "ID": 288, "NAME": "The Holy Family Coptic Catholic Church", "POSTAL": null, "ADDRESS": "62 Lunness Road", "TYPE": "Coptic Orthodox", "Latitude": 43.606309, "Longitude": -79.546237 }, "geometry": { "type": "Point", "coordinates": [ -79.546237, 43.606309 ] } },
{ "type": "Feature", "properties": { "ID": 289, "NAME": "St. Paul the Apostle Church", "POSTAL": null, "ADDRESS": "3224 Dundas Street West", "TYPE": "Roman Catholic", "Latitude": 43.665732, "Longitude": -79.477639 }, "geometry": { "type": "Point", "coordinates": [ -79.477639, 43.665732 ] } },
{ "type": "Feature", "properties": { "ID": 290, "NAME": "First Unitarian Congregation of Toronto", "POSTAL": null, "ADDRESS": "175 St. Clair Avenue West", "TYPE": "Canadian Unitarian Council", "Latitude": 43.686116, "Longitude": -79.402371 }, "geometry": { "type": "Point", "coordinates": [ -79.402371, 43.686116 ] } },
{ "type": "Feature", "properties": { "ID": 291, "NAME": "Hillside Methodist Church", "POSTAL": null, "ADDRESS": "361 Old Finch Avenue East", "TYPE": "United Church", "Latitude": 43.82469, "Longitude": -79.190032 }, "geometry": { "type": "Point", "coordinates": [ -79.190032, 43.82469 ] } },
{ "type": "Feature", "properties": { "ID": 292, "NAME": "Hilltop Bible Chapel", "POSTAL": null, "ADDRESS": "243 La Rose Avenue", "TYPE": "Non-denominational Christian", "Latitude": 43.683228, "Longitude": -79.530648 }, "geometry": { "type": "Point", "coordinates": [ -79.530648, 43.683228 ] } },
{ "type": "Feature", "properties": { "ID": 293, "NAME": "The Pride of Israel Synagogue", "POSTAL": null, "ADDRESS": "59 Lissom Crescent", "TYPE": "Judaism - Conservative", "Latitude": 43.785628, "Longitude": -79.445512 }, "geometry": { "type": "Point", "coordinates": [ -79.445512, 43.785628 ] } },
{ "type": "Feature", "properties": { "ID": 294, "NAME": "Prophetic Church of God", "POSTAL": null, "ADDRESS": "2810 Weston Road", "TYPE": "Church of God", "Latitude": 43.719719, "Longitude": -79.537772 }, "geometry": { "type": "Point", "coordinates": [ -79.537772, 43.719719 ] } },
{ "type": "Feature", "properties": { "ID": 295, "NAME": "Willowdale Baptist Church", "POSTAL": null, "ADDRESS": "15 Olive Avenue", "TYPE": "Baptist", "Latitude": 43.77842, "Longitude": -79.414209 }, "geometry": { "type": "Point", "coordinates": [ -79.414209, 43.77842 ] } },
{ "type": "Feature", "properties": { "ID": 296, "NAME": "St. Paul's Roman Catholic Basilica", "POSTAL": null, "ADDRESS": "93 Power Street", "TYPE": "Roman Catholic", "Latitude": 43.655655, "Longitude": -79.362654 }, "geometry": { "type": "Point", "coordinates": [ -79.362654, 43.655655 ] } },
{ "type": "Feature", "properties": { "ID": 297, "NAME": "St. Paul's Slovak Evangelican Lutheran Church", "POSTAL": null, "ADDRESS": "1442 Davenport Road", "TYPE": "Lutheran", "Latitude": 43.67278, "Longitude": -79.442734 }, "geometry": { "type": "Point", "coordinates": [ -79.442734, 43.67278 ] } },
{ "type": "Feature", "properties": { "ID": 298, "NAME": "Oakwood Baptist Church", "POSTAL": null, "ADDRESS": "421 Oakwood Avenue", "TYPE": "Baptist", "Latitude": 43.689484, "Longitude": -79.439265 }, "geometry": { "type": "Point", "coordinates": [ -79.439265, 43.689484 ] } },
{ "type": "Feature", "properties": { "ID": 299, "NAME": "Madina Masjid", "POSTAL": null, "ADDRESS": "1015 Danforth Avenue", "TYPE": "Islam - Sunni", "Latitude": 43.680417, "Longitude": -79.336074 }, "geometry": { "type": "Point", "coordinates": [ -79.336074, 43.680417 ] } },
{ "type": "Feature", "properties": { "ID": 300, "NAME": "Holy Blossom Temple", "POSTAL": null, "ADDRESS": "1950 Bathurst Street", "TYPE": "Judaism - Reform", "Latitude": 43.698268, "Longitude": -79.425178 }, "geometry": { "type": "Point", "coordinates": [ -79.425178, 43.698268 ] } },
{ "type": "Feature", "properties": { "ID": 301, "NAME": "York Memorial Presbyterian Church", "POSTAL": null, "ADDRESS": "1695 Keele Street", "TYPE": "Presbyterian", "Latitude": 43.685132, "Longitude": -79.472649 }, "geometry": { "type": "Point", "coordinates": [ -79.472649, 43.685132 ] } },
{ "type": "Feature", "properties": { "ID": 302, "NAME": "108 Holland Park Avenue (former Mount Zion Apostolic Church)", "POSTAL": null, "ADDRESS": "108 Holland Park Avenue", "TYPE": "N\/A", "Latitude": 43.686385, "Longitude": -79.439567 }, "geometry": { "type": "Point", "coordinates": [ -79.439567, 43.686385 ] } },
{ "type": "Feature", "properties": { "ID": 303, "NAME": "Little Trinity Church", "POSTAL": null, "ADDRESS": "425 King Street East", "TYPE": "Anglican", "Latitude": 43.653118, "Longitude": -79.361803 }, "geometry": { "type": "Point", "coordinates": [ -79.361803, 43.653118 ] } },
{ "type": "Feature", "properties": { "ID": 304, "NAME": "York Minster Citadel", "POSTAL": null, "ADDRESS": "1 Lord Seaton Road", "TYPE": "Salvation Army", "Latitude": 43.752429, "Longitude": -79.407218 }, "geometry": { "type": "Point", "coordinates": [ -79.407218, 43.752429 ] } },
{ "type": "Feature", "properties": { "ID": 305, "NAME": "Malvern-Emmanuel United Church", "POSTAL": null, "ADDRESS": "25 Sewells Road", "TYPE": "United Church", "Latitude": 43.807438, "Longitude": -79.215816 }, "geometry": { "type": "Point", "coordinates": [ -79.215816, 43.807438 ] } },
{ "type": "Feature", "properties": { "ID": 306, "NAME": "St. George's Anglican Church", "POSTAL": null, "ADDRESS": "5350 Yonge Street", "TYPE": "Anglican", "Latitude": 43.774093, "Longitude": -79.414507 }, "geometry": { "type": "Point", "coordinates": [ -79.414507, 43.774093 ] } },
{ "type": "Feature", "properties": { "ID": 307, "NAME": "St. Gabriel's Passionist Roman Catholic Church", "POSTAL": null, "ADDRESS": "670 Sheppard Avenue", "TYPE": "Roman Catholic", "Latitude": 43.7686, "Longitude": -79.380673 }, "geometry": { "type": "Point", "coordinates": [ -79.380673, 43.7686 ] } },
{ "type": "Feature", "properties": { "ID": 308, "NAME": "St. George's Church On-the-Hill", "POSTAL": null, "ADDRESS": "4600 Dundas Street West", "TYPE": "Anglican", "Latitude": 43.657112, "Longitude": -79.521087 }, "geometry": { "type": "Point", "coordinates": [ -79.521087, 43.657112 ] } },
{ "type": "Feature", "properties": { "ID": 309, "NAME": "St. George's Evangelical Lutheran Church", "POSTAL": null, "ADDRESS": "410 College Street", "TYPE": "Lutheran", "Latitude": 43.65697, "Longitude": -79.4063 }, "geometry": { "type": "Point", "coordinates": [ -79.4063, 43.65697 ] } },
{ "type": "Feature", "properties": { "ID": 310, "NAME": "St. George's Greek Orthodox Church", "POSTAL": null, "ADDRESS": "115 Bond Street", "TYPE": "Greek Orthodox", "Latitude": 43.65732, "Longitude": -79.378417 }, "geometry": { "type": "Point", "coordinates": [ -79.378417, 43.65732 ] } },
{ "type": "Feature", "properties": { "ID": 311, "NAME": "St. George's Macedono-Bulgarian Orthodox Church", "POSTAL": null, "ADDRESS": "17 Regent Street", "TYPE": "Macedono-Bulgarian Orthodox", "Latitude": 43.657885, "Longitude": -79.36332 }, "geometry": { "type": "Point", "coordinates": [ -79.36332, 43.657885 ] } },
{ "type": "Feature", "properties": { "ID": 312, "NAME": "918 Bathurst Street (former Toronto Buddhist Church)", "POSTAL": null, "ADDRESS": "918 Bathurst Street", "TYPE": "Non-religious", "Latitude": 43.668594, "Longitude": -79.413 }, "geometry": { "type": "Point", "coordinates": [ -79.413, 43.668594 ] } },
{ "type": "Feature", "properties": { "ID": 313, "NAME": "St. Giles Anglican Church", "POSTAL": null, "ADDRESS": "35 Kecula Road", "TYPE": "Anglican", "Latitude": 43.653226, "Longitude": -79.383184 }, "geometry": { "type": "Point", "coordinates": [ -79.383184, 43.653226 ] } },
{ "type": "Feature", "properties": { "ID": 314, "NAME": "St. Giles Kingsway Presbyterian Church", "POSTAL": null, "ADDRESS": "15 Lambeth Road", "TYPE": "Presbyterian", "Latitude": 43.661162, "Longitude": -79.520977 }, "geometry": { "type": "Point", "coordinates": [ -79.520977, 43.661162 ] } },
{ "type": "Feature", "properties": { "ID": 315, "NAME": "Elijah Church", "POSTAL": null, "ADDRESS": "1130 Finch Avenue West", "TYPE": "Christian Reformed Church", "Latitude": 43.767143, "Longitude": -79.476013 }, "geometry": { "type": "Point", "coordinates": [ -79.476013, 43.767143 ] } },
{ "type": "Feature", "properties": { "ID": 316, "NAME": "Abundant Life Assembly", "POSTAL": null, "ADDRESS": "145 Dixon Road", "TYPE": "Pentecostal", "Latitude": 43.698442, "Longitude": -79.538786 }, "geometry": { "type": "Point", "coordinates": [ -79.538786, 43.698442 ] } },
{ "type": "Feature", "properties": { "ID": 317, "NAME": "St. Helen's Roman Catholic Church", "POSTAL": null, "ADDRESS": "1688 Dundas Street West", "TYPE": "Roman Catholic", "Latitude": 43.650462, "Longitude": -79.438121 }, "geometry": { "type": "Point", "coordinates": [ -79.438121, 43.650462 ] } },
{ "type": "Feature", "properties": { "ID": 318, "NAME": "First Korean Presbyterian Church", "POSTAL": null, "ADDRESS": "68 Collinson Blvd.", "TYPE": "Presbyterian", "Latitude": 43.74097, "Longitude": -79.440875 }, "geometry": { "type": "Point", "coordinates": [ -79.440875, 43.74097 ] } },
{ "type": "Feature", "properties": { "ID": 319, "NAME": "Adath Israel", "POSTAL": null, "ADDRESS": "37 Southbourne Avenue", "TYPE": "Judaism - Conservative", "Latitude": 43.73856, "Longitude": -79.431093 }, "geometry": { "type": "Point", "coordinates": [ -79.431093, 43.73856 ] } },
{ "type": "Feature", "properties": { "ID": 320, "NAME": "Advent Evangelical Lutheran Church", "POSTAL": null, "ADDRESS": "2800 Don Mills Road", "TYPE": "Lutheran", "Latitude": 43.780499, "Longitude": -79.349152 }, "geometry": { "type": "Point", "coordinates": [ -79.349152, 43.780499 ] } },
{ "type": "Feature", "properties": { "ID": 321, "NAME": "St. Irene Chrysovalantou Greek Orthodox Church", "POSTAL": null, "ADDRESS": "66 Gough Avenue", "TYPE": "Greek Orthodox", "Latitude": 43.679131, "Longitude": -79.346666 }, "geometry": { "type": "Point", "coordinates": [ -79.346666, 43.679131 ] } },
{ "type": "Feature", "properties": { "ID": 322, "NAME": "St. James Anglican Cathedral", "POSTAL": null, "ADDRESS": "106 King Street East", "TYPE": "Anglican", "Latitude": 43.650329, "Longitude": -79.37376 }, "geometry": { "type": "Point", "coordinates": [ -79.37376, 43.650329 ] } },
{ "type": "Feature", "properties": { "ID": 323, "NAME": "The Church Lofts (former Centennial Japanese Church)", "POSTAL": null, "ADDRESS": "701 Dovercourt Road", "TYPE": "United Church", "Latitude": 43.660007, "Longitude": -79.428778 }, "geometry": { "type": "Point", "coordinates": [ -79.428778, 43.660007 ] } },
{ "type": "Feature", "properties": { "ID": 324, "NAME": "Etobicoke Community of Christ", "POSTAL": null, "ADDRESS": "84 Old Burnhamthorpe Road", "TYPE": "Community of Christ", "Latitude": 43.650014, "Longitude": -79.533083 }, "geometry": { "type": "Point", "coordinates": [ -79.533083, 43.650014 ] } },
{ "type": "Feature", "properties": { "ID": 325, "NAME": "Kingdom Hall of Jehovah's Witnesses", "POSTAL": null, "ADDRESS": "5 Maple Leaf Drive", "TYPE": "Jehovah's Witnesses", "Latitude": 43.709049, "Longitude": -79.50444 }, "geometry": { "type": "Point", "coordinates": [ -79.50444, 43.709049 ] } },
{ "type": "Feature", "properties": { "ID": 326, "NAME": "Evangelical Fellowship Chapel", "POSTAL": null, "ADDRESS": "778 Ossington Avenue", "TYPE": "Evangelical", "Latitude": 43.663102, "Longitude": -79.426415 }, "geometry": { "type": "Point", "coordinates": [ -79.426415, 43.663102 ] } },
{ "type": "Feature", "properties": { "ID": 327, "NAME": "Evangelical Presbyterian Church", "POSTAL": null, "ADDRESS": "593 Sheppard Avenue East", "TYPE": "Presbyterian", "Latitude": 43.767708, "Longitude": -79.383693 }, "geometry": { "type": "Point", "coordinates": [ -79.383693, 43.767708 ] } },
{ "type": "Feature", "properties": { "ID": 328, "NAME": "St. James Anglican Church", "POSTAL": null, "ADDRESS": "194 Park Lawn Road", "TYPE": "Anglican", "Latitude": 43.629944, "Longitude": -79.491171 }, "geometry": { "type": "Point", "coordinates": [ -79.491171, 43.629944 ] } },
{ "type": "Feature", "properties": { "ID": 329, "NAME": "Fairbank United Church", "POSTAL": null, "ADDRESS": "2750 Dufferin Street", "TYPE": "United Church", "Latitude": 43.703305, "Longitude": -79.452699 }, "geometry": { "type": "Point", "coordinates": [ -79.452699, 43.703305 ] } },
{ "type": "Feature", "properties": { "ID": 330, "NAME": "Fairlawn Avenue United Church", "POSTAL": null, "ADDRESS": "28 Fairlawn Avenue", "TYPE": "United Church", "Latitude": 43.73109, "Longitude": -79.404756 }, "geometry": { "type": "Point", "coordinates": [ -79.404756, 43.73109 ] } },
{ "type": "Feature", "properties": { "ID": 331, "NAME": "Kingdom Hall of Jehovah's Witnesses", "POSTAL": null, "ADDRESS": "701 Ellesmere Road", "TYPE": "Jehovah's Witnesses", "Latitude": 43.763608, "Longitude": -79.288984 }, "geometry": { "type": "Point", "coordinates": [ -79.288984, 43.763608 ] } },
{ "type": "Feature", "properties": { "ID": 332, "NAME": "Agincourt Baptist Church", "POSTAL": null, "ADDRESS": "37 Glen Watford Drive", "TYPE": "Baptist", "Latitude": 43.790189, "Longitude": -79.277047 }, "geometry": { "type": "Point", "coordinates": [ -79.277047, 43.790189 ] } },
{ "type": "Feature", "properties": { "ID": 333, "NAME": "Faith Baptist Church", "POSTAL": null, "ADDRESS": "3837 Lawrence Avenue East", "TYPE": "Baptist", "Latitude": 43.762337, "Longitude": -79.211057 }, "geometry": { "type": "Point", "coordinates": [ -79.211057, 43.762337 ] } },
{ "type": "Feature", "properties": { "ID": 334, "NAME": "St. James United Church", "POSTAL": null, "ADDRESS": "400 Burnhamthorpe Road", "TYPE": "United Church", "Latitude": 43.646762, "Longitude": -79.556239 }, "geometry": { "type": "Point", "coordinates": [ -79.556239, 43.646762 ] } },
{ "type": "Feature", "properties": { "ID": 335, "NAME": "Club l'age d'or Sacre-Cœur (formerly First Church of Christian Association)", "POSTAL": null, "ADDRESS": "474 Ontario Street", "TYPE": "Non-religious", "Latitude": 43.664105, "Longitude": -79.370953 }, "geometry": { "type": "Point", "coordinates": [ -79.370953, 43.664105 ] } },
{ "type": "Feature", "properties": { "ID": 336, "NAME": "Faith Evangelical Lutheran Church", "POSTAL": null, "ADDRESS": "96 Hucknall Road", "TYPE": "Lutheran", "Latitude": 43.755618, "Longitude": -79.496993 }, "geometry": { "type": "Point", "coordinates": [ -79.496993, 43.755618 ] } },
{ "type": "Feature", "properties": { "ID": 337, "NAME": "St. James-the-Less Chapel", "POSTAL": null, "ADDRESS": "635 Parliament Street", "TYPE": "Anglican", "Latitude": 43.669598, "Longitude": -79.369014 }, "geometry": { "type": "Point", "coordinates": [ -79.369014, 43.669598 ] } },
{ "type": "Feature", "properties": { "ID": 338, "NAME": "St. Jane Frances Roman Catholic Church", "POSTAL": null, "ADDRESS": "2747 Jane Street", "TYPE": "Roman Catholic", "Latitude": 43.74291, "Longitude": -79.514023 }, "geometry": { "type": "Point", "coordinates": [ -79.514023, 43.74291 ] } },
{ "type": "Feature", "properties": { "ID": 339, "NAME": "St. Joan of Arc Roman Catholic Church", "POSTAL": null, "ADDRESS": "1701 Bloor Street West", "TYPE": "Roman Catholic", "Latitude": 43.65489, "Longitude": -79.457924 }, "geometry": { "type": "Point", "coordinates": [ -79.457924, 43.65489 ] } },
{ "type": "Feature", "properties": { "ID": 340, "NAME": "St. John", "POSTAL": null, "ADDRESS": "288 Humberside Avenue", "TYPE": "Anglican", "Latitude": 43.660649, "Longitude": -79.469196 },